$GPRMC,033416.080,A,3116.62932,N,12111.62591,E,0.035,0.00,060226,,,A*51
$GPGGA,033416.080,3116.62932,N,12111.62591,E,1,10,0.9,0.0,M,0.0,M,,*6D
$GPRMC,033416.120,A,3116.62933,N,12111.62591,E,0.033,319.48,060226,,,A*5A
$GPGGA,033416.120,3116.62933,N,12111.62591,E,1,10,0.9,0.0,M,0.0,M,,*67
$GPRMC,033416.160,A,3116.62933,N,12111.62590,E,0.060,270.00,060226,,,A*5B
$GPGGA,033416.160,3116.62933,N,12111.62590,E,1,10,0.9,0.0,M,0.0,M,,*62
$GPRMC,033416.200,A,3116.62933,N,12111.62590,E,0.027,0.00,060226,,,A*58
$GPGGA,033416.200,3116.62933,N,12111.62590,E,1,10,0.9,0.0,M,0.0,M,,*67
$GPRMC,033416.240,A,3116.62933,N,12111.62589,E,0.029,270.00,060226,,,A*5F
$GPGGA,033416.240,3116.62933,N,12111.62589,E,1,10,0.9,0.0,M,0.0,M,,*6B
$GPRMC,033416.280,A,3116.62933,N,12111.62589,E,0.041,90.00,060226,,,A*61
$GPGGA,033416.280,3116.62933,N,12111.62589,E,1,10,0.9,0.0,M,0.0,M,,*67
$GPRMC,033416.320,A,3116.62933,N,12111.62589,E,0.049,270.00,060226,,,A*5E
$GPGGA,033416.320,3116.62933,N,12111.62589,E,1,10,0.9,0.0,M,0.0,M,,*6C
$GPRMC,033416.360,A,3116.62933,N,12111.62588,E,0.093,270.00,060226,,,A*5C
$GPGGA,033416.360,3116.62933,N,12111.62588,E,1,10,0.9,0.0,M,0.0,M,,*69
$GPRMC,033416.400,A,3116.62933,N,12111.62588,E,0.093,0.00,060226,,,A*58
$GPGGA,033416.400,3116.62933,N,12111.62588,E,1,10,0.9,0.0,M,0.0,M,,*68
$GPRMC,033416.440,A,3116.62934,N,12111.62588,E,0.052,336.86,060226,,,A*5E
$GPGGA,033416.440,3116.62934,N,12111.62588,E,1,10,0.9,0.0,M,0.0,M,,*6B
$GPRMC,033416.480,A,3116.62935,N,12111.62587,E,0.111,319.48,060226,,,A*55
$GPGGA,033416.480,3116.62935,N,12111.62587,E,1,10,0.9,0.0,M,0.0,M,,*69
$GPRMC,033416.520,A,3116.62935,N,12111.62586,E,0.097,319.48,060226,,,A*50
$GPGGA,033416.520,3116.62935,N,12111.62586,E,1,10,0.9,0.0,M,0.0,M,,*63
$GPRMC,033416.560,A,3116.62935,N,12111.62586,E,0.097,270.00,060226,,,A*56
$GPGGA,033416.560,3116.62935,N,12111.62586,E,1,10,0.9,0.0,M,0.0,M,,*67
$GPRMC,033416.600,A,3116.62935,N,12111.62585,E,0.070,220.52,060226,,,A*5B
$GPGGA,033416.600,3116.62935,N,12111.62585,E,1,10,0.9,0.0,M,0.0,M,,*61
$GPRMC,033416.640,A,3116.62935,N,12111.62585,E,0.062,0.00,060226,,,A*5B
$GPGGA,033416.640,3116.62935,N,12111.62585,E,1,10,0.9,0.0,M,0.0,M,,*65
$GPRMC,033416.680,A,3116.62935,N,12111.62585,E,0.046,270.00,060226,,,A*54
$GPGGA,033416.680,3116.62935,N,12111.62585,E,1,10,0.9,0.0,M,0.0,M,,*69
$GPRMC,033416.720,A,3116.62935,N,12111.62585,E,0.074,90.00,060226,,,A*62
$GPGGA,033416.720,3116.62935,N,12111.62585,E,1,10,0.9,0.0,M,0.0,M,,*62
$GPRMC,033416.760,A,3116.62936,N,12111.62585,E,0.045,319.48,060226,,,A*59
$GPGGA,033416.760,3116.62936,N,12111.62585,E,1,10,0.9,0.0,M,0.0,M,,*65
$GPRMC,033416.800,A,3116.62936,N,12111.62584,E,0.056,270.00,060226,,,A*51
$GPGGA,033416.800,3116.62936,N,12111.62584,E,1,10,0.9,0.0,M,0.0,M,,*6D
$GPRMC,033416.840,A,3116.62937,N,12111.62584,E,0.046,0.00,060226,,,A*50
$GPGGA,033416.840,3116.62937,N,12111.62584,E,1,10,0.9,0.0,M,0.0,M,,*68
$GPRMC,033416.880,A,3116.62937,N,12111.62583,E,0.041,270.00,060226,,,A*59
$GPGGA,033416.880,3116.62937,N,12111.62583,E,1,10,0.9,0.0,M,0.0,M,,*63
$GPRMC,033416.920,A,3116.62937,N,12111.62583,E,0.051,0.00,060226,,,A*56
$GPGGA,033416.920,3116.62937,N,12111.62583,E,1,10,0.9,0.0,M,0.0,M,,*68
$GPRMC,033416.960,A,3116.62937,N,12111.62583,E,0.022,319.48,060226,,,A*51
$GPGGA,033416.960,3116.62937,N,12111.62583,E,1,10,0.9,0.0,M,0.0,M,,*6C
$GPRMC,033417.000,A,3116.62938,N,12111.62582,E,0.064,319.48,060226,,,A*53
$GPGGA,033417.000,3116.62938,N,12111.62582,E,1,10,0.9,0.0,M,0.0,M,,*6C
$GPRMC,033417.040,A,3116.62937,N,12111.62582,E,0.055,220.52,060226,,,A*5A
$GPGGA,033417.040,3116.62937,N,12111.62582,E,1,10,0.9,0.0,M,0.0,M,,*67
$GPRMC,033417.080,A,3116.62937,N,12111.62581,E,0.080,270.00,060226,,,A*5F
$GPGGA,033417.080,3116.62937,N,12111.62581,E,1,10,0.9,0.0,M,0.0,M,,*68
$GPRMC,033417.120,A,3116.62937,N,12111.62580,E,0.087,270.00,060226,,,A*52
$GPGGA,033417.120,3116.62937,N,12111.62580,E,1,10,0.9,0.0,M,0.0,M,,*62
$GPRMC,033417.160,A,3116.62938,N,12111.62580,E,0.049,0.00,060226,,,A*5E
$GPGGA,033417.160,3116.62938,N,12111.62580,E,1,10,0.9,0.0,M,0.0,M,,*69
$GPRMC,033417.200,A,3116.62938,N,12111.62580,E,0.087,0.00,060226,,,A*59
$GPGGA,033417.200,3116.62938,N,12111.62580,E,1,10,0.9,0.0,M,0.0,M,,*6C
$GPRMC,033417.240,A,3116.62938,N,12111.62580,E,0.051,319.48,060226,,,A*51
$GPGGA,033417.240,3116.62938,N,12111.62580,E,1,10,0.9,0.0,M,0.0,M,,*68
$GPRMC,033417.280,A,3116.62938,N,12111.62580,E,0.056,0.00,060226,,,A*5D
$GPGGA,033417.280,3116.62938,N,12111.62580,E,1,10,0.9,0.0,M,0.0,M,,*64
$GPRMC,033417.320,A,3116.62938,N,12111.62580,E,0.090,0.00,060226,,,A*5C
$GPGGA,033417.320,3116.62938,N,12111.62580,E,1,10,0.9,0.0,M,0.0,M,,*6F
$GPRMC,033417.360,A,3116.62939,N,12111.62579,E,0.039,319.48,060226,,,A*5B
$GPGGA,033417.360,3116.62939,N,12111.62579,E,1,10,0.9,0.0,M,0.0,M,,*6C
$GPRMC,033417.400,A,3116.62940,N,12111.62579,E,0.055,319.48,060226,,,A*5E
$GPGGA,033417.400,3116.62940,N,12111.62579,E,1,10,0.9,0.0,M,0.0,M,,*63
$GPRMC,033417.440,A,3116.62940,N,12111.62578,E,0.052,270.00,060226,,,A*5E
$GPGGA,033417.440,3116.62940,N,12111.62578,E,1,10,0.9,0.0,M,0.0,M,,*66
$GPRMC,033417.480,A,3116.62940,N,12111.62578,E,0.066,0.00,060226,,,A*50
$GPGGA,033417.480,3116.62940,N,12111.62578,E,1,10,0.9,0.0,M,0.0,M,,*6A
$GPRMC,033417.520,A,3116.62940,N,12111.62577,E,0.072,270.00,060226,,,A*54
$GPGGA,033417.520,3116.62940,N,12111.62577,E,1,10,0.9,0.0,M,0.0,M,,*6E
$GPRMC,033417.560,A,3116.62940,N,12111.62577,E,0.016,319.48,060226,,,A*50
$GPGGA,033417.560,3116.62940,N,12111.62577,E,1,10,0.9,0.0,M,0.0,M,,*6A
$GPRMC,033417.600,A,3116.62941,N,12111.62576,E,0.070,319.48,060226,,,A*55
$GPGGA,033417.600,3116.62941,N,12111.62576,E,1,10,0.9,0.0,M,0.0,M,,*6F
$GPRMC,033417.640,A,3116.62941,N,12111.62576,E,0.091,0.00,060226,,,A*59
$GPGGA,033417.640,3116.62941,N,12111.62576,E,1,10,0.9,0.0,M,0.0,M,,*6B
$GPRMC,033417.680,A,3116.62941,N,12111.62576,E,0.055,0.00,060226,,,A*5D
$GPGGA,033417.680,3116.62941,N,12111.62576,E,1,10,0.9,0.0,M,0.0,M,,*67
$GPRMC,033417.720,A,3116.62940,N,12111.62576,E,0.049,220.52,060226,,,A*5D
$GPGGA,033417.720,3116.62940,N,12111.62576,E,1,10,0.9,0.0,M,0.0,M,,*6D
$GPRMC,033417.760,A,3116.62940,N,12111.62576,E,0.087,0.00,060226,,,A*5C
$GPGGA,033417.760,3116.62940,N,12111.62576,E,1,10,0.9,0.0,M,0.0,M,,*69
$GPRMC,033417.800,A,3116.62941,N,12111.62576,E,0.058,0.00,060226,,,A*56
$GPGGA,033417.800,3116.62941,N,12111.62576,E,1,10,0.9,0.0,M,0.0,M,,*61
$GPRMC,033417.840,A,3116.62941,N,12111.62575,E,0.037,319.48,060226,,,A*5F
$GPGGA,033417.840,3116.62941,N,12111.62575,E,1,10,0.9,0.0,M,0.0,M,,*66
$GPRMC,033417.880,A,3116.62941,N,12111.62574,E,0.046,270.00,060226,,,A*56
$GPGGA,033417.880,3116.62941,N,12111.62574,E,1,10,0.9,0.0,M,0.0,M,,*6B
$GPRMC,033417.920,A,3116.62942,N,12111.62574,E,0.095,319.48,060226,,,A*52
$GPGGA,033417.920,3116.62942,N,12111.62574,E,1,10,0.9,0.0,M,0.0,M,,*63
$GPRMC,033417.960,A,3116.62943,N,12111.62573,E,0.107,319.48,060226,,,A*5A
$GPGGA,033417.960,3116.62943,N,12111.62573,E,1,10,0.9,0.0,M,0.0,M,,*61
$GPRMC,033418.000,A,3116.62942,N,12111.62574,E,0.055,120.33,060226,,,A*5E
$GPGGA,033418.000,3116.62942,N,12111.62574,E,1,10,0.9,0.0,M,0.0,M,,*67
$GPRMC,033418.040,A,3116.62943,N,12111.62573,E,0.076,300.33,060226,,,A*5D
$GPGGA,033418.040,3116.62943,N,12111.62573,E,1,10,0.9,0.0,M,0.0,M,,*65
$GPRMC,033418.080,A,3116.62942,N,12111.62573,E,0.033,180.00,060226,,,A*5B
$GPGGA,033418.080,3116.62942,N,12111.62573,E,1,10,0.9,0.0,M,0.0,M,,*68
$GPRMC,033418.120,A,3116.62942,N,12111.62573,E,0.049,270.00,060226,,,A*51
$GPGGA,033418.120,3116.62942,N,12111.62573,E,1,10,0.9,0.0,M,0.0,M,,*63
$GPRMC,033418.160,A,3116.62942,N,12111.62571,E,0.041,270.00,060226,,,A*5F
$GPGGA,033418.160,3116.62942,N,12111.62571,E,1,10,0.9,0.0,M,0.0,M,,*65
$GPRMC,033418.200,A,3116.62943,N,12111.62572,E,0.051,40.52,060226,,,A*6F
$GPGGA,033418.200,3116.62943,N,12111.62572,E,1,10,0.9,0.0,M,0.0,M,,*62
$GPRMC,033418.240,A,3116.62943,N,12111.62571,E,0.022,270.00,060226,,,A*5A
$GPGGA,033418.240,3116.62943,N,12111.62571,E,1,10,0.9,0.0,M,0.0,M,,*65
$GPRMC,033418.280,A,3116.62943,N,12111.62572,E,0.037,90.00,060226,,,A*6D
$GPGGA,033418.280,3116.62943,N,12111.62572,E,1,10,0.9,0.0,M,0.0,M,,*6A
$GPRMC,033418.320,A,3116.62943,N,12111.62571,E,0.033,319.48,060226,,,A*5F
$GPGGA,033418.320,3116.62943,N,12111.62571,E,1,10,0.9,0.0,M,0.0,M,,*62
$GPRMC,033418.360,A,3116.62943,N,12111.62570,E,0.037,270.00,060226,,,A*5C
$GPGGA,033418.360,3116.62943,N,12111.62570,E,1,10,0.9,0.0,M,0.0,M,,*67
$GPRMC,033418.400,A,3116.62943,N,12111.62570,E,0.008,0.00,060226,,,A*54
$GPGGA,033418.400,3116.62943,N,12111.62570,E,1,10,0.9,0.0,M,0.0,M,,*66
$GPRMC,033418.440,A,3116.62943,N,12111.62570,E,0.010,0.00,060226,,,A*59
$GPGGA,033418.440,3116.62943,N,12111.62570,E,1,10,0.9,0.0,M,0.0,M,,*62
$GPRMC,033418.480,A,3116.62943,N,12111.62570,E,0.025,270.00,060226,,,A*56
$GPGGA,033418.480,3116.62943,N,12111.62570,E,1,10,0.9,0.0,M,0.0,M,,*6E
$GPRMC,033418.520,A,3116.62943,N,12111.62570,E,0.004,0.00,060226,,,A*5B
$GPGGA,033418.520,3116.62943,N,12111.62570,E,1,10,0.9,0.0,M,0.0,M,,*65
$GPRMC,033418.560,A,3116.62943,N,12111.62569,E,0.010,270.00,060226,,,A*57
$GPGGA,033418.560,3116.62943,N,12111.62569,E,1,10,0.9,0.0,M,0.0,M,,*69
$GPRMC,033418.560,A,3116.62943,N,12111.62569,E,0.010,0.00,060226,,,A*52
$GPGGA,033418.560,3116.62943,N,12111.62569,E,1,10,0.9,0.0,M,0.0,M,,*69
$GPRMC,033418.600,A,3116.62944,N,12111.62569,E,0.055,0.00,060226,,,A*51
$GPGGA,033418.600,3116.62944,N,12111.62569,E,1,10,0.9,0.0,M,0.0,M,,*6B
$GPRMC,033418.640,A,3116.62944,N,12111.62569,E,0.029,0.00,060226,,,A*5E
$GPGGA,033418.640,3116.62944,N,12111.62569,E,1,10,0.9,0.0,M,0.0,M,,*6F
$GPRMC,033418.680,A,3116.62943,N,12111.62568,E,0.060,220.52,060226,,,A*5E
$GPGGA,033418.680,3116.62943,N,12111.62568,E,1,10,0.9,0.0,M,0.0,M,,*65
$GPRMC,033418.720,A,3116.62944,N,12111.62568,E,0.035,0.00,060226,,,A*55
$GPGGA,033418.720,3116.62944,N,12111.62568,E,1,10,0.9,0.0,M,0.0,M,,*69
$GPRMC,033418.760,A,3116.62944,N,12111.62568,E,0.055,270.00,060226,,,A*52
$GPGGA,033418.760,3116.62944,N,12111.62568,E,1,10,0.9,0.0,M,0.0,M,,*6D
$GPRMC,033418.800,A,3116.62944,N,12111.62568,E,0.017,0.00,060226,,,A*58
$GPGGA,033418.800,3116.62944,N,12111.62568,E,1,10,0.9,0.0,M,0.0,M,,*64
$GPRMC,033418.840,A,3116.62944,N,12111.62567,E,0.045,319.48,060226,,,A*53
$GPGGA,033418.840,3116.62944,N,12111.62567,E,1,10,0.9,0.0,M,0.0,M,,*6F
$GPRMC,033418.880,A,3116.62944,N,12111.62567,E,0.037,0.00,060226,,,A*5D
$GPGGA,033418.880,3116.62944,N,12111.62567,E,1,10,0.9,0.0,M,0.0,M,,*63
$GPRMC,033418.920,A,3116.62944,N,12111.62567,E,0.049,0.00,060226,,,A*5F
$GPGGA,033418.920,3116.62944,N,12111.62567,E,1,10,0.9,0.0,M,0.0,M,,*68
$GPRMC,033418.960,A,3116.62944,N,12111.62567,E,0.060,0.00,060226,,,A*50
$GPGGA,033418.960,3116.62944,N,12111.62567,E,1,10,0.9,0.0,M,0.0,M,,*6C
$GPRMC,033419.000,A,3116.62945,N,12111.62567,E,0.070,0.00,060226,,,A*5E
$GPGGA,033419.000,3116.62945,N,12111.62567,E,1,10,0.9,0.0,M,0.0,M,,*63
$GPRMC,033419.040,A,3116.62946,N,12111.62567,E,0.105,319.48,060226,,,A*5D
$GPGGA,033419.040,3116.62946,N,12111.62567,E,1,10,0.9,0.0,M,0.0,M,,*64
$GPRMC,033419.080,A,3116.62945,N,12111.62566,E,0.052,220.52,060226,,,A*50
$GPGGA,033419.080,3116.62945,N,12111.62566,E,1,10,0.9,0.0,M,0.0,M,,*6A
$GPRMC,033419.120,A,3116.62945,N,12111.62566,E,0.025,0.00,060226,,,A*5C
$GPGGA,033419.120,3116.62945,N,12111.62566,E,1,10,0.9,0.0,M,0.0,M,,*61
$GPRMC,033419.160,A,3116.62944,N,12111.62565,E,0.087,220.52,060226,,,A*55
$GPGGA,033419.160,3116.62944,N,12111.62565,E,1,10,0.9,0.0,M,0.0,M,,*67
$GPRMC,033419.200,A,3116.62944,N,12111.62565,E,0.120,0.00,060226,,,A*5B
$GPGGA,033419.200,3116.62944,N,12111.62565,E,1,10,0.9,0.0,M,0.0,M,,*62
$GPRMC,033419.240,A,3116.62945,N,12111.62564,E,0.046,300.33,060226,,,A*5D
$GPGGA,033419.240,3116.62945,N,12111.62564,E,1,10,0.9,0.0,M,0.0,M,,*66
$GPRMC,033419.280,A,3116.62946,N,12111.62564,E,0.049,319.48,060226,,,A*59
$GPGGA,033419.280,3116.62946,N,12111.62564,E,1,10,0.9,0.0,M,0.0,M,,*69
$GPRMC,033419.320,A,3116.62946,N,12111.62564,E,0.043,90.00,060226,,,A*66
$GPGGA,033419.320,3116.62946,N,12111.62564,E,1,10,0.9,0.0,M,0.0,M,,*62
$GPRMC,033419.360,A,3116.62946,N,12111.62564,E,0.058,0.00,060226,,,A*51
$GPGGA,033419.360,3116.62946,N,12111.62564,E,1,10,0.9,0.0,M,0.0,M,,*66
$GPRMC,033419.400,A,3116.62946,N,12111.62564,E,0.056,0.00,060226,,,A*5E
$GPGGA,033419.400,3116.62946,N,12111.62564,E,1,10,0.9,0.0,M,0.0,M,,*67
$GPRMC,033419.440,A,3116.62946,N,12111.62564,E,0.123,0.00,060226,,,A*59
$GPGGA,033419.440,3116.62946,N,12111.62564,E,1,10,0.9,0.0,M,0.0,M,,*63
$GPRMC,033419.480,A,3116.62946,N,12111.62564,E,0.037,270.00,060226,,,A*54
$GPGGA,033419.480,3116.62946,N,12111.62564,E,1,10,0.9,0.0,M,0.0,M,,*6F
$GPRMC,033419.520,A,3116.62947,N,12111.62563,E,0.062,319.48,060226,,,A*5B
$GPGGA,033419.520,3116.62947,N,12111.62563,E,1,10,0.9,0.0,M,0.0,M,,*62
$GPRMC,033419.560,A,3116.62947,N,12111.62563,E,0.055,0.00,060226,,,A*5C
$GPGGA,033419.560,3116.62947,N,12111.62563,E,1,10,0.9,0.0,M,0.0,M,,*66
$GPRMC,033419.560,A,3116.62947,N,12111.62563,E,0.055,0.00,060226,,,A*5C
$GPGGA,033419.560,3116.62947,N,12111.62563,E,1,10,0.9,0.0,M,0.0,M,,*66
$GPRMC,033419.600,A,3116.62947,N,12111.62563,E,0.066,0.00,060226,,,A*59
$GPGGA,033419.600,3116.62947,N,12111.62563,E,1,10,0.9,0.0,M,0.0,M,,*63
$GPRMC,033419.640,A,3116.62947,N,12111.62562,E,0.124,270.00,060226,,,A*5E
$GPGGA,033419.640,3116.62947,N,12111.62562,E,1,10,0.9,0.0,M,0.0,M,,*66
$GPRMC,033419.680,A,3116.62947,N,12111.62562,E,0.052,0.00,060226,,,A*57
$GPGGA,033419.680,3116.62947,N,12111.62562,E,1,10,0.9,0.0,M,0.0,M,,*6A
$GPRMC,033419.720,A,3116.62947,N,12111.62562,E,0.033,270.00,060226,,,A*5E
$GPGGA,033419.720,3116.62947,N,12111.62562,E,1,10,0.9,0.0,M,0.0,M,,*61
$GPRMC,033419.760,A,3116.62947,N,12111.62562,E,0.080,180.00,060226,,,A*5E
$GPGGA,033419.760,3116.62947,N,12111.62562,E,1,10,0.9,0.0,M,0.0,M,,*65
$GPRMC,033419.800,A,3116.62947,N,12111.62562,E,0.066,0.00,060226,,,A*56
$GPGGA,033419.800,3116.62947,N,12111.62562,E,1,10,0.9,0.0,M,0.0,M,,*6C
$GPRMC,033419.840,A,3116.62947,N,12111.62561,E,0.043,319.48,060226,,,A*51
$GPGGA,033419.840,3116.62947,N,12111.62561,E,1,10,0.9,0.0,M,0.0,M,,*6B
$GPRMC,033419.880,A,3116.62947,N,12111.62561,E,0.055,0.00,060226,,,A*5D
$GPGGA,033419.880,3116.62947,N,12111.62561,E,1,10,0.9,0.0,M,0.0,M,,*67
$GPRMC,033419.920,A,3116.62947,N,12111.62561,E,0.046,0.00,060226,,,A*54
$GPGGA,033419.920,3116.62947,N,12111.62561,E,1,10,0.9,0.0,M,0.0,M,,*6C
$GPRMC,033419.960,A,3116.62947,N,12111.62561,E,0.013,270.00,060226,,,A*55
$GPGGA,033419.960,3116.62947,N,12111.62561,E,1,10,0.9,0.0,M,0.0,M,,*68
$GPRMC,033420.000,A,3116.62948,N,12111.62561,E,0.025,0.00,060226,,,A*5F
$GPGGA,033420.000,3116.62948,N,12111.62561,E,1,10,0.9,0.0,M,0.0,M,,*62
$GPRMC,033420.040,A,3116.62948,N,12111.62561,E,0.056,0.00,060226,,,A*5F
$GPGGA,033420.040,3116.62948,N,12111.62561,E,1,10,0.9,0.0,M,0.0,M,,*66
$GPRMC,033420.080,A,3116.62948,N,12111.62561,E,0.076,0.00,060226,,,A*51
$GPGGA,033420.080,3116.62948,N,12111.62561,E,1,10,0.9,0.0,M,0.0,M,,*6A
$GPRMC,033420.120,A,3116.62948,N,12111.62560,E,0.013,270.00,060226,,,A*5D
$GPGGA,033420.120,3116.62948,N,12111.62560,E,1,10,0.9,0.0,M,0.0,M,,*60
$GPRMC,033420.160,A,3116.62947,N,12111.62560,E,0.045,180.00,060226,,,A*59
$GPGGA,033420.160,3116.62947,N,12111.62560,E,1,10,0.9,0.0,M,0.0,M,,*6B
$GPRMC,033420.200,A,3116.62947,N,12111.62560,E,0.080,0.00,060226,,,A*5C
$GPGGA,033420.200,3116.62947,N,12111.62560,E,1,10,0.9,0.0,M,0.0,M,,*6E
$GPRMC,033420.240,A,3116.62947,N,12111.62559,E,0.058,270.00,060226,,,A*52
$GPGGA,033420.240,3116.62947,N,12111.62559,E,1,10,0.9,0.0,M,0.0,M,,*60
$GPRMC,033420.280,A,3116.62948,N,12111.62559,E,0.070,0.00,060226,,,A*5E
$GPGGA,033420.280,3116.62948,N,12111.62559,E,1,10,0.9,0.0,M,0.0,M,,*63
$GPRMC,033420.320,A,3116.62948,N,12111.62559,E,0.066,270.00,060226,,,A*57
$GPGGA,033420.320,3116.62948,N,12111.62559,E,1,10,0.9,0.0,M,0.0,M,,*68
$GPRMC,033420.360,A,3116.62948,N,12111.62558,E,0.035,270.00,060226,,,A*54
$GPGGA,033420.360,3116.62948,N,12111.62558,E,1,10,0.9,0.0,M,0.0,M,,*6D
$GPRMC,033420.400,A,3116.62948,N,12111.62558,E,0.019,0.00,060226,,,A*5E
$GPGGA,033420.400,3116.62948,N,12111.62558,E,1,10,0.9,0.0,M,0.0,M,,*6C
$GPRMC,033420.440,A,3116.62947,N,12111.62558,E,0.023,220.52,060226,,,A*5B
$GPGGA,033420.440,3116.62947,N,12111.62558,E,1,10,0.9,0.0,M,0.0,M,,*67
$GPRMC,033420.480,A,3116.62947,N,12111.62557,E,0.045,270.00,060226,,,A*5A
$GPGGA,033420.480,3116.62947,N,12111.62557,E,1,10,0.9,0.0,M,0.0,M,,*64
$GPRMC,033420.520,A,3116.62947,N,12111.62558,E,0.046,90.00,060226,,,A*61
$GPGGA,033420.520,3116.62947,N,12111.62558,E,1,10,0.9,0.0,M,0.0,M,,*60
$GPRMC,033420.560,A,3116.62947,N,12111.62558,E,0.058,0.00,060226,,,A*53
$GPGGA,033420.560,3116.62947,N,12111.62558,E,1,10,0.9,0.0,M,0.0,M,,*64
$GPRMC,033420.560,A,3116.62947,N,12111.62558,E,0.058,0.00,060226,,,A*53
$GPGGA,033420.560,3116.62947,N,12111.62558,E,1,10,0.9,0.0,M,0.0,M,,*64
$GPRMC,033420.600,A,3116.62947,N,12111.62558,E,0.082,90.00,060226,,,A*68
$GPGGA,033420.600,3116.62947,N,12111.62558,E,1,10,0.9,0.0,M,0.0,M,,*61
$GPRMC,033420.640,A,3116.62948,N,12111.62558,E,0.046,319.48,060226,,,A*55
$GPGGA,033420.640,3116.62948,N,12111.62558,E,1,10,0.9,0.0,M,0.0,M,,*6A
$GPRMC,033420.680,A,3116.62948,N,12111.62558,E,0.025,0.00,060226,,,A*5B
$GPGGA,033420.680,3116.62948,N,12111.62558,E,1,10,0.9,0.0,M,0.0,M,,*66
$GPRMC,033420.720,A,3116.62948,N,12111.62556,E,0.091,270.00,060226,,,A*54
$GPGGA,033420.720,3116.62948,N,12111.62556,E,1,10,0.9,0.0,M,0.0,M,,*63
$GPRMC,033420.760,A,3116.62948,N,12111.62556,E,0.111,270.00,060226,,,A*59
$GPGGA,033420.760,3116.62948,N,12111.62556,E,1,10,0.9,0.0,M,0.0,M,,*67
$GPRMC,033420.800,A,3116.62948,N,12111.62556,E,0.087,0.00,060226,,,A*5B
$GPGGA,033420.800,3116.62948,N,12111.62556,E,1,10,0.9,0.0,M,0.0,M,,*6E
$GPRMC,033420.840,A,3116.62948,N,12111.62556,E,0.013,0.00,060226,,,A*52
$GPGGA,033420.840,3116.62948,N,12111.62556,E,1,10,0.9,0.0,M,0.0,M,,*6A
$GPRMC,033420.840,A,3116.62948,N,12111.62556,E,0.013,0.00,060226,,,A*52
$GPGGA,033420.840,3116.62948,N,12111.62556,E,1,10,0.9,0.0,M,0.0,M,,*6A
$GPRMC,033420.880,A,3116.62948,N,12111.62556,E,0.035,0.00,060226,,,A*5A
$GPGGA,033420.880,3116.62948,N,12111.62556,E,1,10,0.9,0.0,M,0.0,M,,*66
$GPRMC,033420.920,A,3116.62948,N,12111.62556,E,0.060,0.00,060226,,,A*51
$GPGGA,033420.920,3116.62948,N,12111.62556,E,1,10,0.9,0.0,M,0.0,M,,*6D
$GPRMC,033420.960,A,3116.62948,N,12111.62556,E,0.119,0.00,060226,,,A*5A
$GPGGA,033420.960,3116.62948,N,12111.62556,E,1,10,0.9,0.0,M,0.0,M,,*69
$GPRMC,033421.000,A,3116.62948,N,12111.62555,E,0.103,270.00,060226,,,A*59
$GPGGA,033421.000,3116.62948,N,12111.62555,E,1,10,0.9,0.0,M,0.0,M,,*64
$GPRMC,033421.040,A,3116.62948,N,12111.62555,E,0.074,0.00,060226,,,A*59
$GPGGA,033421.040,3116.62948,N,12111.62555,E,1,10,0.9,0.0,M,0.0,M,,*60
$GPRMC,033421.080,A,3116.62948,N,12111.62555,E,0.025,270.00,060226,,,A*54
$GPGGA,033421.080,3116.62948,N,12111.62555,E,1,10,0.9,0.0,M,0.0,M,,*6C
$GPRMC,033421.120,A,3116.62949,N,12111.62555,E,0.087,0.00,060226,,,A*53
$GPGGA,033421.120,3116.62949,N,12111.62555,E,1,10,0.9,0.0,M,0.0,M,,*66
$GPRMC,033421.160,A,3116.62949,N,12111.62554,E,0.097,270.00,060226,,,A*52
$GPGGA,033421.160,3116.62949,N,12111.62554,E,1,10,0.9,0.0,M,0.0,M,,*63
$GPRMC,033421.200,A,3116.62948,N,12111.62553,E,0.152,220.52,060226,,,A*5B
$GPGGA,033421.200,3116.62948,N,12111.62553,E,1,10,0.9,0.0,M,0.0,M,,*60
$GPRMC,033421.240,A,3116.62948,N,12111.62553,E,0.029,0.00,060226,,,A*55
$GPGGA,033421.240,3116.62948,N,12111.62553,E,1,10,0.9,0.0,M,0.0,M,,*64
$GPRMC,033421.280,A,3116.62948,N,12111.62554,E,0.082,90.00,060226,,,A*66
$GPGGA,033421.280,3116.62948,N,12111.62554,E,1,10,0.9,0.0,M,0.0,M,,*6F
$GPRMC,033421.320,A,3116.62948,N,12111.62553,E,0.082,270.00,060226,,,A*56
$GPGGA,033421.320,3116.62948,N,12111.62553,E,1,10,0.9,0.0,M,0.0,M,,*63
$GPRMC,033421.360,A,3116.62948,N,12111.62553,E,0.070,0.00,060226,,,A*5A
$GPGGA,033421.360,3116.62948,N,12111.62553,E,1,10,0.9,0.0,M,0.0,M,,*67
$GPRMC,033421.400,A,3116.62948,N,12111.62554,E,0.060,90.00,060226,,,A*64
$GPGGA,033421.400,3116.62948,N,12111.62554,E,1,10,0.9,0.0,M,0.0,M,,*61
$GPRMC,033421.440,A,3116.62948,N,12111.62554,E,0.064,0.00,060226,,,A*5D
$GPGGA,033421.440,3116.62948,N,12111.62554,E,1,10,0.9,0.0,M,0.0,M,,*65
$GPRMC,033421.480,A,3116.62948,N,12111.62554,E,0.064,0.00,060226,,,A*51
$GPGGA,033421.480,3116.62948,N,12111.62554,E,1,10,0.9,0.0,M,0.0,M,,*69
$GPRMC,033421.520,A,3116.62948,N,12111.62553,E,0.017,270.00,060226,,,A*5C
$GPGGA,033421.520,3116.62948,N,12111.62553,E,1,10,0.9,0.0,M,0.0,M,,*65
$GPRMC,033421.560,A,3116.62948,N,12111.62553,E,0.051,270.00,060226,,,A*5A
$GPGGA,033421.560,3116.62948,N,12111.62553,E,1,10,0.9,0.0,M,0.0,M,,*61
$GPRMC,033421.600,A,3116.62949,N,12111.62552,E,0.130,336.86,060226,,,A*54
$GPGGA,033421.600,3116.62949,N,12111.62552,E,1,10,0.9,0.0,M,0.0,M,,*64
$GPRMC,033421.600,A,3116.62949,N,12111.62552,E,0.130,0.00,060226,,,A*5C
$GPGGA,033421.600,3116.62949,N,12111.62552,E,1,10,0.9,0.0,M,0.0,M,,*64
$GPRMC,033421.640,A,3116.62949,N,12111.62553,E,0.097,90.00,060226,,,A*6C
$GPGGA,033421.640,3116.62949,N,12111.62553,E,1,10,0.9,0.0,M,0.0,M,,*61
$GPRMC,033421.680,A,3116.62949,N,12111.62552,E,0.078,270.00,060226,,,A*5C
$GPGGA,033421.680,3116.62949,N,12111.62552,E,1,10,0.9,0.0,M,0.0,M,,*6C
$GPRMC,033421.720,A,3116.62949,N,12111.62552,E,0.027,180.00,060226,,,A*51
$GPGGA,033421.720,3116.62949,N,12111.62552,E,1,10,0.9,0.0,M,0.0,M,,*67
$GPRMC,033421.760,A,3116.62949,N,12111.62552,E,0.031,0.00,060226,,,A*5B
$GPGGA,033421.760,3116.62949,N,12111.62552,E,1,10,0.9,0.0,M,0.0,M,,*63
$GPRMC,033421.800,A,3116.62949,N,12111.62552,E,0.039,270.00,060226,,,A*5F
$GPGGA,033421.800,3116.62949,N,12111.62552,E,1,10,0.9,0.0,M,0.0,M,,*6A
$GPRMC,033421.840,A,3116.62949,N,12111.62552,E,0.022,0.00,060226,,,A*54
$GPGGA,033421.840,3116.62949,N,12111.62552,E,1,10,0.9,0.0,M,0.0,M,,*6E
$GPRMC,033421.880,A,3116.62948,N,12111.62552,E,0.046,180.00,060226,,,A*52
$GPGGA,033421.880,3116.62948,N,12111.62552,E,1,10,0.9,0.0,M,0.0,M,,*63
$GPRMC,033421.880,A,3116.62948,N,12111.62552,E,0.046,0.00,060226,,,A*5B
$GPGGA,033421.880,3116.62948,N,12111.62552,E,1,10,0.9,0.0,M,0.0,M,,*63
$GPRMC,033421.920,A,3116.62949,N,12111.62551,E,0.041,319.48,060226,,,A*52
$GPGGA,033421.920,3116.62949,N,12111.62551,E,1,10,0.9,0.0,M,0.0,M,,*6A
$GPRMC,033421.960,A,3116.62948,N,12111.62550,E,0.055,220.52,060226,,,A*53
$GPGGA,033421.960,3116.62948,N,12111.62550,E,1,10,0.9,0.0,M,0.0,M,,*6E
$GPRMC,033422.000,A,3116.62948,N,12111.62551,E,0.087,90.00,060226,,,A*6F
$GPGGA,033422.000,3116.62948,N,12111.62551,E,1,10,0.9,0.0,M,0.0,M,,*63
$GPRMC,033422.040,A,3116.62948,N,12111.62550,E,0.045,270.00,060226,,,A*58
$GPGGA,033422.040,3116.62948,N,12111.62550,E,1,10,0.9,0.0,M,0.0,M,,*66
$GPRMC,033422.080,A,3116.62948,N,12111.62550,E,0.058,0.00,060226,,,A*5D
$GPGGA,033422.080,3116.62948,N,12111.62550,E,1,10,0.9,0.0,M,0.0,M,,*6A
$GPRMC,033422.120,A,3116.62949,N,12111.62550,E,0.084,0.00,060226,,,A*56
$GPGGA,033422.120,3116.62949,N,12111.62550,E,1,10,0.9,0.0,M,0.0,M,,*60
$GPRMC,033422.160,A,3116.62948,N,12111.62550,E,0.066,180.00,060226,,,A*56
$GPGGA,033422.160,3116.62948,N,12111.62550,E,1,10,0.9,0.0,M,0.0,M,,*65
$GPRMC,033422.200,A,3116.62948,N,12111.62550,E,0.041,0.00,060226,,,A*5F
$GPGGA,033422.200,3116.62948,N,12111.62550,E,1,10,0.9,0.0,M,0.0,M,,*60
$GPRMC,033422.240,A,3116.62948,N,12111.62550,E,0.060,0.00,060226,,,A*58
$GPGGA,033422.240,3116.62948,N,12111.62550,E,1,10,0.9,0.0,M,0.0,M,,*64
$GPRMC,033422.280,A,3116.62948,N,12111.62550,E,0.058,270.00,060226,,,A*5A
$GPGGA,033422.280,3116.62948,N,12111.62550,E,1,10,0.9,0.0,M,0.0,M,,*68
$GPRMC,033422.320,A,3116.62947,N,12111.62550,E,0.037,180.00,060226,,,A*5B
$GPGGA,033422.320,3116.62947,N,12111.62550,E,1,10,0.9,0.0,M,0.0,M,,*6C
$GPRMC,033422.360,A,3116.62947,N,12111.62550,E,0.046,0.00,060226,,,A*50
$GPGGA,033422.360,3116.62947,N,12111.62550,E,1,10,0.9,0.0,M,0.0,M,,*68
$GPRMC,033422.400,A,3116.62947,N,12111.62550,E,0.039,0.00,060226,,,A*59
$GPGGA,033422.400,3116.62947,N,12111.62550,E,1,10,0.9,0.0,M,0.0,M,,*69
$GPRMC,033422.440,A,3116.62947,N,12111.62549,E,0.039,270.00,060226,,,A*50
$GPGGA,033422.440,3116.62947,N,12111.62549,E,1,10,0.9,0.0,M,0.0,M,,*65
$GPRMC,033422.480,A,3116.62948,N,12111.62549,E,0.066,0.00,060226,,,A*5C
$GPGGA,033422.480,3116.62948,N,12111.62549,E,1,10,0.9,0.0,M,0.0,M,,*66
$GPRMC,033422.520,A,3116.62947,N,12111.62549,E,0.049,180.00,060226,,,A*5C
$GPGGA,033422.520,3116.62947,N,12111.62549,E,1,10,0.9,0.0,M,0.0,M,,*62
$GPRMC,033422.560,A,3116.62947,N,12111.62549,E,0.060,0.00,060226,,,A*5A
$GPGGA,033422.560,3116.62947,N,12111.62549,E,1,10,0.9,0.0,M,0.0,M,,*66
$GPRMC,033422.600,A,3116.62947,N,12111.62549,E,0.093,180.00,060226,,,A*5A
$GPGGA,033422.600,3116.62947,N,12111.62549,E,1,10,0.9,0.0,M,0.0,M,,*63
$GPRMC,033422.640,A,3116.62947,N,12111.62549,E,0.043,0.00,060226,,,A*5A
$GPGGA,033422.640,3116.62947,N,12111.62549,E,1,10,0.9,0.0,M,0.0,M,,*67
$GPRMC,033422.640,A,3116.62947,N,12111.62549,E,0.043,0.00,060226,,,A*5A
$GPGGA,033422.640,3116.62947,N,12111.62549,E,1,10,0.9,0.0,M,0.0,M,,*67
$GPRMC,033422.680,A,3116.62947,N,12111.62549,E,0.103,0.00,060226,,,A*53
$GPGGA,033422.680,3116.62947,N,12111.62549,E,1,10,0.9,0.0,M,0.0,M,,*6B
$GPRMC,033422.720,A,3116.62947,N,12111.62549,E,0.072,0.00,060226,,,A*5F
$GPGGA,033422.720,3116.62947,N,12111.62549,E,1,10,0.9,0.0,M,0.0,M,,*60
$GPRMC,033422.760,A,3116.62947,N,12111.62549,E,0.051,220.52,060226,,,A*5D
$GPGGA,033422.760,3116.62947,N,12111.62549,E,1,10,0.9,0.0,M,0.0,M,,*64
$GPRMC,033422.800,A,3116.62947,N,12111.62549,E,0.025,0.00,060226,,,A*50
$GPGGA,033422.800,3116.62947,N,12111.62549,E,1,10,0.9,0.0,M,0.0,M,,*6D
$GPRMC,033422.840,A,3116.62946,N,12111.62549,E,0.060,180.00,060226,,,A*5D
$GPGGA,033422.840,3116.62946,N,12111.62549,E,1,10,0.9,0.0,M,0.0,M,,*68
$GPRMC,033422.880,A,3116.62947,N,12111.62548,E,0.060,319.48,060226,,,A*5F
$GPGGA,033422.880,3116.62947,N,12111.62548,E,1,10,0.9,0.0,M,0.0,M,,*64
$GPRMC,033422.920,A,3116.62947,N,12111.62547,E,0.049,270.00,060226,,,A*52
$GPGGA,033422.920,3116.62947,N,12111.62547,E,1,10,0.9,0.0,M,0.0,M,,*60
$GPRMC,033422.960,A,3116.62947,N,12111.62547,E,0.093,270.00,060226,,,A*51
$GPGGA,033422.960,3116.62947,N,12111.62547,E,1,10,0.9,0.0,M,0.0,M,,*64
$GPRMC,033423.000,A,3116.62947,N,12111.62547,E,0.058,0.00,060226,,,A*5D
$GPGGA,033423.000,3116.62947,N,12111.62547,E,1,10,0.9,0.0,M,0.0,M,,*6A
$GPRMC,033423.040,A,3116.62947,N,12111.62547,E,0.013,0.00,060226,,,A*56
$GPGGA,033423.040,3116.62947,N,12111.62547,E,1,10,0.9,0.0,M,0.0,M,,*6E
$GPRMC,033423.080,A,3116.62946,N,12111.62547,E,0.013,180.00,060226,,,A*52
$GPGGA,033423.080,3116.62946,N,12111.62547,E,1,10,0.9,0.0,M,0.0,M,,*63
$GPRMC,033423.120,A,3116.62947,N,12111.62547,E,0.114,0.00,060226,,,A*57
$GPGGA,033423.120,3116.62947,N,12111.62547,E,1,10,0.9,0.0,M,0.0,M,,*69
$GPRMC,033423.160,A,3116.62947,N,12111.62547,E,0.146,90.00,060226,,,A*6D
$GPGGA,033423.160,3116.62947,N,12111.62547,E,1,10,0.9,0.0,M,0.0,M,,*6D
$GPRMC,033423.200,A,3116.62946,N,12111.62547,E,0.062,180.00,060226,,,A*5E
$GPGGA,033423.200,3116.62946,N,12111.62547,E,1,10,0.9,0.0,M,0.0,M,,*69
$GPRMC,033423.200,A,3116.62946,N,12111.62547,E,0.062,0.00,060226,,,A*57
$GPGGA,033423.200,3116.62946,N,12111.62547,E,1,10,0.9,0.0,M,0.0,M,,*69
$GPRMC,033423.240,A,3116.62946,N,12111.62547,E,0.035,270.00,060226,,,A*54
$GPGGA,033423.240,3116.62946,N,12111.62547,E,1,10,0.9,0.0,M,0.0,M,,*6D
$GPRMC,033423.280,A,3116.62946,N,12111.62546,E,0.022,270.00,060226,,,A*5F
$GPGGA,033423.280,3116.62946,N,12111.62546,E,1,10,0.9,0.0,M,0.0,M,,*60
$GPRMC,033423.320,A,3116.62946,N,12111.62546,E,0.058,0.00,060226,,,A*5C
$GPGGA,033423.320,3116.62946,N,12111.62546,E,1,10,0.9,0.0,M,0.0,M,,*6B
$GPRMC,033423.360,A,3116.62946,N,12111.62546,E,0.006,270.00,060226,,,A*56
$GPGGA,033423.360,3116.62946,N,12111.62546,E,1,10,0.9,0.0,M,0.0,M,,*6F
$GPRMC,033423.400,A,3116.62947,N,12111.62545,E,0.078,319.48,060226,,,A*5E
$GPGGA,033423.400,3116.62947,N,12111.62545,E,1,10,0.9,0.0,M,0.0,M,,*6C
$GPRMC,033423.440,A,3116.62947,N,12111.62545,E,0.087,0.00,060226,,,A*5D
$GPGGA,033423.440,3116.62947,N,12111.62545,E,1,10,0.9,0.0,M,0.0,M,,*68
$GPRMC,033423.480,A,3116.62946,N,12111.62545,E,0.087,180.00,060226,,,A*59
$GPGGA,033423.480,3116.62946,N,12111.62545,E,1,10,0.9,0.0,M,0.0,M,,*65
$GPRMC,033423.520,A,3116.62946,N,12111.62545,E,0.037,0.00,060226,,,A*50
$GPGGA,033423.520,3116.62946,N,12111.62545,E,1,10,0.9,0.0,M,0.0,M,,*6E
$GPRMC,033423.560,A,3116.62946,N,12111.62545,E,0.060,0.00,060226,,,A*56
$GPGGA,033423.560,3116.62946,N,12111.62545,E,1,10,0.9,0.0,M,0.0,M,,*6A
$GPRMC,033423.600,A,3116.62946,N,12111.62545,E,0.091,0.00,060226,,,A*5D
$GPGGA,033423.600,3116.62946,N,12111.62545,E,1,10,0.9,0.0,M,0.0,M,,*6F
$GPRMC,033423.640,A,3116.62946,N,12111.62545,E,0.027,180.00,060226,,,A*5D
$GPGGA,033423.640,3116.62946,N,12111.62545,E,1,10,0.9,0.0,M,0.0,M,,*6B
$GPRMC,033423.680,A,3116.62946,N,12111.62545,E,0.093,0.00,060226,,,A*57
$GPGGA,033423.680,3116.62946,N,12111.62545,E,1,10,0.9,0.0,M,0.0,M,,*67
$GPRMC,033423.720,A,3116.62945,N,12111.62544,E,0.130,220.52,060226,,,A*51
$GPGGA,033423.720,3116.62945,N,12111.62544,E,1,10,0.9,0.0,M,0.0,M,,*6E
$GPRMC,033423.760,A,3116.62945,N,12111.62544,E,0.041,0.00,060226,,,A*55
$GPGGA,033423.760,3116.62945,N,12111.62544,E,1,10,0.9,0.0,M,0.0,M,,*6A
$GPRMC,033423.800,A,3116.62946,N,12111.62545,E,0.070,40.52,060226,,,A*6F
$GPGGA,033423.800,3116.62946,N,12111.62545,E,1,10,0.9,0.0,M,0.0,M,,*61
$GPRMC,033423.840,A,3116.62946,N,12111.62546,E,0.173,90.00,060226,,,A*60
$GPGGA,033423.840,3116.62946,N,12111.62546,E,1,10,0.9,0.0,M,0.0,M,,*66
$GPRMC,033423.880,A,3116.62946,N,12111.62545,E,0.114,270.00,060226,,,A*52
$GPGGA,033423.880,3116.62946,N,12111.62545,E,1,10,0.9,0.0,M,0.0,M,,*69
$GPRMC,033423.920,A,3116.62946,N,12111.62544,E,0.037,270.00,060226,,,A*58
$GPGGA,033423.920,3116.62946,N,12111.62544,E,1,10,0.9,0.0,M,0.0,M,,*63
$GPRMC,033423.960,A,3116.62945,N,12111.62544,E,0.045,220.52,060226,,,A*58
$GPGGA,033423.960,3116.62945,N,12111.62544,E,1,10,0.9,0.0,M,0.0,M,,*64
$GPRMC,033424.000,A,3116.62945,N,12111.62544,E,0.052,0.00,060226,,,A*51
$GPGGA,033424.000,3116.62945,N,12111.62544,E,1,10,0.9,0.0,M,0.0,M,,*6C
$GPRMC,033424.040,A,3116.62945,N,12111.62544,E,0.080,0.00,060226,,,A*5A
$GPGGA,033424.040,3116.62945,N,12111.62544,E,1,10,0.9,0.0,M,0.0,M,,*68
$GPRMC,033424.080,A,3116.62945,N,12111.62544,E,0.084,0.00,060226,,,A*52
$GPGGA,033424.080,3116.62945,N,12111.62544,E,1,10,0.9,0.0,M,0.0,M,,*64
$GPRMC,033424.120,A,3116.62945,N,12111.62543,E,0.076,270.00,060226,,,A*56
$GPGGA,033424.120,3116.62945,N,12111.62543,E,1,10,0.9,0.0,M,0.0,M,,*68
$GPRMC,033424.160,A,3116.62944,N,12111.62543,E,0.033,180.00,060226,,,A*5E
$GPGGA,033424.160,3116.62944,N,12111.62543,E,1,10,0.9,0.0,M,0.0,M,,*6D
$GPRMC,033424.200,A,3116.62944,N,12111.62543,E,0.055,180.00,060226,,,A*5B
$GPGGA,033424.200,3116.62944,N,12111.62543,E,1,10,0.9,0.0,M,0.0,M,,*68
$GPRMC,033424.240,A,3116.62944,N,12111.62544,E,0.090,90.00,060226,,,A*61
$GPGGA,033424.240,3116.62944,N,12111.62544,E,1,10,0.9,0.0,M,0.0,M,,*6B
$GPRMC,033424.240,A,3116.62944,N,12111.62544,E,0.090,0.00,060226,,,A*58
$GPGGA,033424.240,3116.62944,N,12111.62544,E,1,10,0.9,0.0,M,0.0,M,,*6B
$GPRMC,033424.280,A,3116.62944,N,12111.62544,E,0.095,0.00,060226,,,A*51
$GPGGA,033424.280,3116.62944,N,12111.62544,E,1,10,0.9,0.0,M,0.0,M,,*67
$GPRMC,033424.320,A,3116.62944,N,12111.62544,E,0.072,0.00,060226,,,A*53
$GPGGA,033424.320,3116.62944,N,12111.62544,E,1,10,0.9,0.0,M,0.0,M,,*6C
$GPRMC,033424.360,A,3116.62944,N,12111.62544,E,0.101,0.00,060226,,,A*52
$GPGGA,033424.360,3116.62944,N,12111.62544,E,1,10,0.9,0.0,M,0.0,M,,*68
$GPRMC,033424.400,A,3116.62944,N,12111.62544,E,0.070,0.00,060226,,,A*54
$GPGGA,033424.400,3116.62944,N,12111.62544,E,1,10,0.9,0.0,M,0.0,M,,*69
$GPRMC,033424.440,A,3116.62943,N,12111.62544,E,0.068,180.00,060226,,,A*57
$GPGGA,033424.440,3116.62943,N,12111.62544,E,1,10,0.9,0.0,M,0.0,M,,*6A
$GPRMC,033424.480,A,3116.62943,N,12111.62543,E,0.058,220.52,060226,,,A*51
$GPGGA,033424.480,3116.62943,N,12111.62543,E,1,10,0.9,0.0,M,0.0,M,,*61
$GPRMC,033424.520,A,3116.62942,N,12111.62543,E,0.109,180.00,060226,,,A*50
$GPGGA,033424.520,3116.62942,N,12111.62543,E,1,10,0.9,0.0,M,0.0,M,,*6B
$GPRMC,033424.560,A,3116.62943,N,12111.62543,E,0.025,319.48,060226,,,A*54
$GPGGA,033424.560,3116.62943,N,12111.62543,E,1,10,0.9,0.0,M,0.0,M,,*6E
$GPRMC,033424.600,A,3116.62942,N,12111.62543,E,0.031,180.00,060226,,,A*5B
$GPGGA,033424.600,3116.62942,N,12111.62543,E,1,10,0.9,0.0,M,0.0,M,,*6A
$GPRMC,033424.640,A,3116.62943,N,12111.62543,E,0.099,40.52,060226,,,A*66
$GPGGA,033424.640,3116.62943,N,12111.62543,E,1,10,0.9,0.0,M,0.0,M,,*6F
$GPRMC,033424.680,A,3116.62942,N,12111.62543,E,0.041,220.52,060226,,,A*5A
$GPGGA,033424.680,3116.62942,N,12111.62543,E,1,10,0.9,0.0,M,0.0,M,,*62
$GPRMC,033424.720,A,3116.62942,N,12111.62543,E,0.087,0.00,060226,,,A*5C
$GPGGA,033424.720,3116.62942,N,12111.62543,E,1,10,0.9,0.0,M,0.0,M,,*69
$GPRMC,033424.760,A,3116.62942,N,12111.62542,E,0.097,270.00,060226,,,A*5D
$GPGGA,033424.760,3116.62942,N,12111.62542,E,1,10,0.9,0.0,M,0.0,M,,*6C
$GPRMC,033424.800,A,3116.62941,N,12111.62542,E,0.013,180.00,060226,,,A*57
$GPGGA,033424.800,3116.62941,N,12111.62542,E,1,10,0.9,0.0,M,0.0,M,,*66
$GPRMC,033424.840,A,3116.62941,N,12111.62543,E,0.022,90.00,060226,,,A*60
$GPGGA,033424.840,3116.62941,N,12111.62543,E,1,10,0.9,0.0,M,0.0,M,,*63
$GPRMC,033424.880,A,3116.62941,N,12111.62543,E,0.074,180.00,060226,,,A*5F
$GPGGA,033424.880,3116.62941,N,12111.62543,E,1,10,0.9,0.0,M,0.0,M,,*6F
$GPRMC,033424.920,A,3116.62941,N,12111.62543,E,0.076,0.00,060226,,,A*5F
$GPGGA,033424.920,3116.62941,N,12111.62543,E,1,10,0.9,0.0,M,0.0,M,,*64
$GPRMC,033424.960,A,3116.62940,N,12111.62543,E,0.085,139.48,060226,,,A*51
$GPGGA,033424.960,3116.62940,N,12111.62543,E,1,10,0.9,0.0,M,0.0,M,,*61
$GPRMC,033425.000,A,3116.62941,N,12111.62543,E,0.013,319.48,060226,,,A*51
$GPGGA,033425.000,3116.62941,N,12111.62543,E,1,10,0.9,0.0,M,0.0,M,,*6E
$GPRMC,033425.040,A,3116.62941,N,12111.62542,E,0.072,270.00,060226,,,A*51
$GPGGA,033425.040,3116.62941,N,12111.62542,E,1,10,0.9,0.0,M,0.0,M,,*6B
$GPRMC,033425.080,A,3116.62941,N,12111.62542,E,0.085,0.00,060226,,,A*50
$GPGGA,033425.080,3116.62941,N,12111.62542,E,1,10,0.9,0.0,M,0.0,M,,*67
$GPRMC,033425.120,A,3116.62940,N,12111.62542,E,0.019,180.00,060226,,,A*56
$GPGGA,033425.120,3116.62940,N,12111.62542,E,1,10,0.9,0.0,M,0.0,M,,*6D
$GPRMC,033425.160,A,3116.62940,N,12111.62542,E,0.043,0.00,060226,,,A*54
$GPGGA,033425.160,3116.62940,N,12111.62542,E,1,10,0.9,0.0,M,0.0,M,,*69
$GPRMC,033425.200,A,3116.62940,N,12111.62541,E,0.087,270.00,060226,,,A*5F
$GPGGA,033425.200,3116.62940,N,12111.62541,E,1,10,0.9,0.0,M,0.0,M,,*6F
$GPRMC,033425.240,A,3116.62940,N,12111.62541,E,0.066,180.00,060226,,,A*58
$GPGGA,033425.240,3116.62940,N,12111.62541,E,1,10,0.9,0.0,M,0.0,M,,*6B
$GPRMC,033425.240,A,3116.62940,N,12111.62541,E,0.066,0.00,060226,,,A*51
$GPGGA,033425.240,3116.62940,N,12111.62541,E,1,10,0.9,0.0,M,0.0,M,,*6B
$GPRMC,033425.280,A,3116.62940,N,12111.62541,E,0.062,0.00,060226,,,A*59
$GPGGA,033425.280,3116.62940,N,12111.62541,E,1,10,0.9,0.0,M,0.0,M,,*67
$GPRMC,033425.320,A,3116.62939,N,12111.62541,E,0.074,180.00,060226,,,A*52
$GPGGA,033425.320,3116.62939,N,12111.62541,E,1,10,0.9,0.0,M,0.0,M,,*62
$GPRMC,033425.360,A,3116.62938,N,12111.62541,E,0.056,180.00,060226,,,A*57
$GPGGA,033425.360,3116.62938,N,12111.62541,E,1,10,0.9,0.0,M,0.0,M,,*67
$GPRMC,033425.400,A,3116.62938,N,12111.62541,E,0.068,180.00,060226,,,A*5B
$GPGGA,033425.400,3116.62938,N,12111.62541,E,1,10,0.9,0.0,M,0.0,M,,*66
$GPRMC,033425.440,A,3116.62937,N,12111.62542,E,0.114,139.48,060226,,,A*57
$GPGGA,033425.440,3116.62937,N,12111.62542,E,1,10,0.9,0.0,M,0.0,M,,*6E
$GPRMC,033425.480,A,3116.62938,N,12111.62541,E,0.033,319.48,060226,,,A*53
$GPGGA,033425.480,3116.62938,N,12111.62541,E,1,10,0.9,0.0,M,0.0,M,,*6E
$GPRMC,033425.520,A,3116.62938,N,12111.62541,E,0.049,0.00,060226,,,A*52
$GPGGA,033425.520,3116.62938,N,12111.62541,E,1,10,0.9,0.0,M,0.0,M,,*65
$GPRMC,033425.560,A,3116.62937,N,12111.62541,E,0.031,180.00,060226,,,A*5F
$GPGGA,033425.560,3116.62937,N,12111.62541,E,1,10,0.9,0.0,M,0.0,M,,*6E
$GPRMC,033425.600,A,3116.62937,N,12111.62541,E,0.066,270.00,060226,,,A*54
$GPGGA,033425.600,3116.62937,N,12111.62541,E,1,10,0.9,0.0,M,0.0,M,,*6B
$GPRMC,033425.640,A,3116.62937,N,12111.62541,E,0.039,180.00,060226,,,A*56
$GPGGA,033425.640,3116.62937,N,12111.62541,E,1,10,0.9,0.0,M,0.0,M,,*6F
$GPRMC,033425.680,A,3116.62936,N,12111.62541,E,0.076,180.00,060226,,,A*50
$GPGGA,033425.680,3116.62936,N,12111.62541,E,1,10,0.9,0.0,M,0.0,M,,*62
$GPRMC,033425.720,A,3116.62936,N,12111.62541,E,0.046,0.00,060226,,,A*51
$GPGGA,033425.720,3116.62936,N,12111.62541,E,1,10,0.9,0.0,M,0.0,M,,*69
$GPRMC,033425.760,A,3116.62936,N,12111.62540,E,0.058,270.00,060226,,,A*5E
$GPGGA,033425.760,3116.62936,N,12111.62540,E,1,10,0.9,0.0,M,0.0,M,,*6C
$GPRMC,033425.800,A,3116.62936,N,12111.62540,E,0.099,0.00,060226,,,A*5F
$GPGGA,033425.800,3116.62936,N,12111.62540,E,1,10,0.9,0.0,M,0.0,M,,*65
$GPRMC,033425.840,A,3116.62935,N,12111.62540,E,0.013,180.00,060226,,,A*53
$GPGGA,033425.840,3116.62935,N,12111.62540,E,1,10,0.9,0.0,M,0.0,M,,*62
$GPRMC,033425.880,A,3116.62934,N,12111.62540,E,0.066,180.00,060226,,,A*5C
$GPGGA,033425.880,3116.62934,N,12111.62540,E,1,10,0.9,0.0,M,0.0,M,,*6F
$GPRMC,033425.920,A,3116.62934,N,12111.62540,E,0.051,0.00,060226,,,A*5A
$GPGGA,033425.920,3116.62934,N,12111.62540,E,1,10,0.9,0.0,M,0.0,M,,*64
$GPRMC,033425.960,A,3116.62934,N,12111.62540,E,0.027,0.00,060226,,,A*5F
$GPGGA,033425.960,3116.62934,N,12111.62540,E,1,10,0.9,0.0,M,0.0,M,,*60
$GPRMC,033426.000,A,3116.62934,N,12111.62540,E,0.078,0.00,060226,,,A*59
$GPGGA,033426.000,3116.62934,N,12111.62540,E,1,10,0.9,0.0,M,0.0,M,,*6C
$GPRMC,033426.040,A,3116.62934,N,12111.62540,E,0.055,180.00,060226,,,A*5B
$GPGGA,033426.040,3116.62934,N,12111.62540,E,1,10,0.9,0.0,M,0.0,M,,*68
$GPRMC,033426.080,A,3116.62933,N,12111.62540,E,0.033,220.52,060226,,,A*5E
$GPGGA,033426.080,3116.62933,N,12111.62540,E,1,10,0.9,0.0,M,0.0,M,,*63
$GPRMC,033426.120,A,3116.62932,N,12111.62540,E,0.043,139.48,060226,,,A*53
$GPGGA,033426.120,3116.62932,N,12111.62540,E,1,10,0.9,0.0,M,0.0,M,,*69
$GPRMC,033426.160,A,3116.62932,N,12111.62540,E,0.046,270.00,060226,,,A*50
$GPGGA,033426.160,3116.62932,N,12111.62540,E,1,10,0.9,0.0,M,0.0,M,,*6D
$GPRMC,033426.200,A,3116.62932,N,12111.62540,E,0.074,180.00,060226,,,A*58
$GPGGA,033426.200,3116.62932,N,12111.62540,E,1,10,0.9,0.0,M,0.0,M,,*68
$GPRMC,033426.240,A,3116.62932,N,12111.62539,E,0.013,270.00,060226,,,A*5F
$GPGGA,033426.240,3116.62932,N,12111.62539,E,1,10,0.9,0.0,M,0.0,M,,*62
$GPRMC,033426.240,A,3116.62932,N,12111.62539,E,0.013,0.00,060226,,,A*5A
$GPGGA,033426.240,3116.62932,N,12111.62539,E,1,10,0.9,0.0,M,0.0,M,,*62
$GPRMC,033426.280,A,3116.62931,N,12111.62539,E,0.085,180.00,060226,,,A*53
$GPGGA,033426.280,3116.62931,N,12111.62539,E,1,10,0.9,0.0,M,0.0,M,,*6D
$GPRMC,033426.320,A,3116.62931,N,12111.62539,E,0.041,0.00,060226,,,A*59
$GPGGA,033426.320,3116.62931,N,12111.62539,E,1,10,0.9,0.0,M,0.0,M,,*66
$GPRMC,033426.360,A,3116.62931,N,12111.62538,E,0.027,220.52,060226,,,A*5B
$GPGGA,033426.360,3116.62931,N,12111.62538,E,1,10,0.9,0.0,M,0.0,M,,*63
$GPRMC,033426.400,A,3116.62930,N,12111.62539,E,0.055,139.48,060226,,,A*5F
$GPGGA,033426.400,3116.62930,N,12111.62539,E,1,10,0.9,0.0,M,0.0,M,,*62
$GPRMC,033426.440,A,3116.62930,N,12111.62538,E,0.051,270.00,060226,,,A*5C
$GPGGA,033426.440,3116.62930,N,12111.62538,E,1,10,0.9,0.0,M,0.0,M,,*67
$GPRMC,033426.480,A,3116.62930,N,12111.62538,E,0.093,270.00,060226,,,A*5E
$GPGGA,033426.480,3116.62930,N,12111.62538,E,1,10,0.9,0.0,M,0.0,M,,*6B
$GPRMC,033426.520,A,3116.62930,N,12111.62538,E,0.158,0.00,060226,,,A*56
$GPGGA,033426.520,3116.62930,N,12111.62538,E,1,10,0.9,0.0,M,0.0,M,,*60
$GPRMC,033426.560,A,3116.62930,N,12111.62538,E,0.146,0.00,060226,,,A*5D
$GPGGA,033426.560,3116.62930,N,12111.62538,E,1,10,0.9,0.0,M,0.0,M,,*64
$GPRMC,033426.600,A,3116.62929,N,12111.62538,E,0.013,180.00,060226,,,A*58
$GPGGA,033426.600,3116.62929,N,12111.62538,E,1,10,0.9,0.0,M,0.0,M,,*69
$GPRMC,033426.640,A,3116.62929,N,12111.62538,E,0.045,0.00,060226,,,A*56
$GPGGA,033426.640,3116.62929,N,12111.62538,E,1,10,0.9,0.0,M,0.0,M,,*6D
$GPRMC,033426.680,A,3116.62928,N,12111.62538,E,0.055,180.00,060226,,,A*53
$GPGGA,033426.680,3116.62928,N,12111.62538,E,1,10,0.9,0.0,M,0.0,M,,*60
$GPRMC,033426.720,A,3116.62928,N,12111.62538,E,0.056,180.00,060226,,,A*5B
$GPGGA,033426.720,3116.62928,N,12111.62538,E,1,10,0.9,0.0,M,0.0,M,,*6B
$GPRMC,033426.760,A,3116.62927,N,12111.62537,E,0.109,220.52,060226,,,A*5A
$GPGGA,033426.760,3116.62927,N,12111.62537,E,1,10,0.9,0.0,M,0.0,M,,*6F
$GPRMC,033426.800,A,3116.62926,N,12111.62537,E,0.072,180.00,060226,,,A*51
$GPGGA,033426.800,3116.62926,N,12111.62537,E,1,10,0.9,0.0,M,0.0,M,,*67
$GPRMC,033426.840,A,3116.62926,N,12111.62537,E,0.033,270.00,060226,,,A*5C
$GPGGA,033426.840,3116.62926,N,12111.62537,E,1,10,0.9,0.0,M,0.0,M,,*63
$GPRMC,033426.880,A,3116.62926,N,12111.62536,E,0.019,270.00,060226,,,A*59
$GPGGA,033426.880,3116.62926,N,12111.62536,E,1,10,0.9,0.0,M,0.0,M,,*6E
$GPRMC,033426.920,A,3116.62926,N,12111.62537,E,0.095,90.00,060226,,,A*6B
$GPGGA,033426.920,3116.62926,N,12111.62537,E,1,10,0.9,0.0,M,0.0,M,,*64
$GPRMC,033426.960,A,3116.62926,N,12111.62537,E,0.072,90.00,060226,,,A*66
$GPGGA,033426.960,3116.62926,N,12111.62537,E,1,10,0.9,0.0,M,0.0,M,,*60
$GPRMC,033427.000,A,3116.62926,N,12111.62537,E,0.051,220.52,060226,,,A*57
$GPGGA,033427.000,3116.62926,N,12111.62537,E,1,10,0.9,0.0,M,0.0,M,,*6E
$GPRMC,033427.040,A,3116.62925,N,12111.62537,E,0.017,180.00,060226,,,A*5C
$GPGGA,033427.040,3116.62925,N,12111.62537,E,1,10,0.9,0.0,M,0.0,M,,*69
$GPRMC,033427.080,A,3116.62925,N,12111.62537,E,0.033,180.00,060226,,,A*56
$GPGGA,033427.080,3116.62925,N,12111.62537,E,1,10,0.9,0.0,M,0.0,M,,*65
$GPRMC,033427.120,A,3116.62924,N,12111.62537,E,0.078,180.00,060226,,,A*53
$GPGGA,033427.120,3116.62924,N,12111.62537,E,1,10,0.9,0.0,M,0.0,M,,*6F
$GPRMC,033427.120,A,3116.62924,N,12111.62537,E,0.078,0.00,060226,,,A*5A
$GPGGA,033427.120,3116.62924,N,12111.62537,E,1,10,0.9,0.0,M,0.0,M,,*6F
$GPRMC,033427.160,A,3116.62923,N,12111.62537,E,0.085,180.00,060226,,,A*52
$GPGGA,033427.160,3116.62923,N,12111.62537,E,1,10,0.9,0.0,M,0.0,M,,*6C
$GPRMC,033427.200,A,3116.62923,N,12111.62537,E,0.095,180.00,060226,,,A*56
$GPGGA,033427.200,3116.62923,N,12111.62537,E,1,10,0.9,0.0,M,0.0,M,,*69
$GPRMC,033427.240,A,3116.62922,N,12111.62537,E,0.099,180.00,060226,,,A*5F
$GPGGA,033427.240,3116.62922,N,12111.62537,E,1,10,0.9,0.0,M,0.0,M,,*6C
$GPRMC,033427.280,A,3116.62923,N,12111.62536,E,0.101,319.48,060226,,,A*5D
$GPGGA,033427.280,3116.62923,N,12111.62536,E,1,10,0.9,0.0,M,0.0,M,,*60
$GPRMC,033427.280,A,3116.62923,N,12111.62536,E,0.101,0.00,060226,,,A*5A
$GPGGA,033427.280,3116.62923,N,12111.62536,E,1,10,0.9,0.0,M,0.0,M,,*60
$GPRMC,033427.320,A,3116.62922,N,12111.62536,E,0.105,180.00,060226,,,A*5D
$GPGGA,033427.320,3116.62922,N,12111.62536,E,1,10,0.9,0.0,M,0.0,M,,*6A
$GPRMC,033427.360,A,3116.62922,N,12111.62536,E,0.013,0.00,060226,,,A*56
$GPGGA,033427.360,3116.62922,N,12111.62536,E,1,10,0.9,0.0,M,0.0,M,,*6E
$GPRMC,033427.400,A,3116.62922,N,12111.62536,E,0.008,180.00,060226,,,A*54
$GPGGA,033427.400,3116.62922,N,12111.62536,E,1,10,0.9,0.0,M,0.0,M,,*6F
$GPRMC,033427.440,A,3116.62922,N,12111.62537,E,0.031,90.00,060226,,,A*6B
$GPGGA,033427.440,3116.62922,N,12111.62537,E,1,10,0.9,0.0,M,0.0,M,,*6A
$GPRMC,033427.480,A,3116.62921,N,12111.62537,E,0.082,180.00,060226,,,A*5C
$GPGGA,033427.480,3116.62921,N,12111.62537,E,1,10,0.9,0.0,M,0.0,M,,*65
$GPRMC,033427.520,A,3116.62920,N,12111.62537,E,0.076,180.00,060226,,,A*5D
$GPGGA,033427.520,3116.62920,N,12111.62537,E,1,10,0.9,0.0,M,0.0,M,,*6F
$GPRMC,033427.560,A,3116.62920,N,12111.62537,E,0.033,0.00,060226,,,A*51
$GPGGA,033427.560,3116.62920,N,12111.62537,E,1,10,0.9,0.0,M,0.0,M,,*6B
$GPRMC,033427.600,A,3116.62920,N,12111.62537,E,0.064,180.00,060226,,,A*5F
$GPGGA,033427.600,3116.62920,N,12111.62537,E,1,10,0.9,0.0,M,0.0,M,,*6E
$GPRMC,033427.640,A,3116.62919,N,12111.62537,E,0.056,180.00,060226,,,A*50
$GPGGA,033427.640,3116.62919,N,12111.62537,E,1,10,0.9,0.0,M,0.0,M,,*60
$GPRMC,033427.680,A,3116.62920,N,12111.62536,E,0.080,319.48,060226,,,A*52
$GPGGA,033427.680,3116.62920,N,12111.62536,E,1,10,0.9,0.0,M,0.0,M,,*67
$GPRMC,033427.720,A,3116.62919,N,12111.62536,E,0.055,180.00,060226,,,A*55
$GPGGA,033427.720,3116.62919,N,12111.62536,E,1,10,0.9,0.0,M,0.0,M,,*66
$GPRMC,033427.760,A,3116.62918,N,12111.62536,E,0.090,180.00,060226,,,A*59
$GPGGA,033427.760,3116.62918,N,12111.62536,E,1,10,0.9,0.0,M,0.0,M,,*63
$GPRMC,033427.800,A,3116.62918,N,12111.62536,E,0.031,0.00,060226,,,A*52
$GPGGA,033427.800,3116.62918,N,12111.62536,E,1,10,0.9,0.0,M,0.0,M,,*6A
$GPRMC,033427.840,A,3116.62918,N,12111.62536,E,0.022,0.00,060226,,,A*54
$GPGGA,033427.840,3116.62918,N,12111.62536,E,1,10,0.9,0.0,M,0.0,M,,*6E
$GPRMC,033427.880,A,3116.62917,N,12111.62537,E,0.052,139.48,060226,,,A*56
$GPGGA,033427.880,3116.62917,N,12111.62537,E,1,10,0.9,0.0,M,0.0,M,,*6C
$GPRMC,033427.920,A,3116.62917,N,12111.62537,E,0.046,0.00,060226,,,A*5F
$GPGGA,033427.920,3116.62917,N,12111.62537,E,1,10,0.9,0.0,M,0.0,M,,*67
$GPRMC,033427.960,A,3116.62917,N,12111.62536,E,0.091,270.00,060226,,,A*55
$GPGGA,033427.960,3116.62917,N,12111.62536,E,1,10,0.9,0.0,M,0.0,M,,*62
$GPRMC,033428.000,A,3116.62917,N,12111.62537,E,0.082,90.00,060226,,,A*6A
$GPGGA,033428.000,3116.62917,N,12111.62537,E,1,10,0.9,0.0,M,0.0,M,,*63
$GPRMC,033428.040,A,3116.62917,N,12111.62536,E,0.056,220.52,060226,,,A*58
$GPGGA,033428.040,3116.62917,N,12111.62536,E,1,10,0.9,0.0,M,0.0,M,,*66
$GPRMC,033428.080,A,3116.62916,N,12111.62537,E,0.066,139.48,060226,,,A*57
$GPGGA,033428.080,3116.62916,N,12111.62537,E,1,10,0.9,0.0,M,0.0,M,,*6A
$GPRMC,033428.120,A,3116.62916,N,12111.62537,E,0.090,180.00,060226,,,A*5B
$GPGGA,033428.120,3116.62916,N,12111.62537,E,1,10,0.9,0.0,M,0.0,M,,*61
$GPRMC,033428.160,A,3116.62916,N,12111.62537,E,0.062,0.00,060226,,,A*5B
$GPGGA,033428.160,3116.62916,N,12111.62537,E,1,10,0.9,0.0,M,0.0,M,,*65
$GPRMC,033428.160,A,3116.62916,N,12111.62537,E,0.062,0.00,060226,,,A*5B
$GPGGA,033428.160,3116.62916,N,12111.62537,E,1,10,0.9,0.0,M,0.0,M,,*65
$GPRMC,033428.200,A,3116.62916,N,12111.62536,E,0.008,270.00,060226,,,A*56
$GPGGA,033428.200,3116.62916,N,12111.62536,E,1,10,0.9,0.0,M,0.0,M,,*61
$GPRMC,033428.240,A,3116.62915,N,12111.62536,E,0.029,180.00,060226,,,A*5E
$GPGGA,033428.240,3116.62915,N,12111.62536,E,1,10,0.9,0.0,M,0.0,M,,*66
$GPRMC,033428.280,A,3116.62914,N,12111.62537,E,0.070,139.48,060226,,,A*50
$GPGGA,033428.280,3116.62914,N,12111.62537,E,1,10,0.9,0.0,M,0.0,M,,*6A
$GPRMC,033428.320,A,3116.62914,N,12111.62536,E,0.016,270.00,060226,,,A*58
$GPGGA,033428.320,3116.62914,N,12111.62536,E,1,10,0.9,0.0,M,0.0,M,,*60
$GPRMC,033428.320,A,3116.62914,N,12111.62536,E,0.016,0.00,060226,,,A*5D
$GPGGA,033428.320,3116.62914,N,12111.62536,E,1,10,0.9,0.0,M,0.0,M,,*60
$GPRMC,033428.360,A,3116.62914,N,12111.62536,E,0.017,0.00,060226,,,A*58
$GPGGA,033428.360,3116.62914,N,12111.62536,E,1,10,0.9,0.0,M,0.0,M,,*64
$GPRMC,033428.400,A,3116.62914,N,12111.62537,E,0.025,139.48,060226,,,A*5E
$GPGGA,033428.400,3116.62914,N,12111.62537,E,1,10,0.9,0.0,M,0.0,M,,*64
$GPRMC,033428.440,A,3116.62914,N,12111.62537,E,0.029,0.00,060226,,,A*51
$GPGGA,033428.440,3116.62914,N,12111.62537,E,1,10,0.9,0.0,M,0.0,M,,*60
$GPRMC,033428.480,A,3116.62913,N,12111.62537,E,0.084,180.00,060226,,,A*54
$GPGGA,033428.480,3116.62913,N,12111.62537,E,1,10,0.9,0.0,M,0.0,M,,*6B
$GPRMC,033428.520,A,3116.62913,N,12111.62537,E,0.072,0.00,060226,,,A*5F
$GPGGA,033428.520,3116.62913,N,12111.62537,E,1,10,0.9,0.0,M,0.0,M,,*60
$GPRMC,033428.560,A,3116.62914,N,12111.62537,E,0.103,0.00,060226,,,A*5B
$GPGGA,033428.560,3116.62914,N,12111.62537,E,1,10,0.9,0.0,M,0.0,M,,*63
$GPRMC,033428.600,A,3116.62913,N,12111.62537,E,0.019,180.00,060226,,,A*5A
$GPGGA,033428.600,3116.62913,N,12111.62537,E,1,10,0.9,0.0,M,0.0,M,,*61
$GPRMC,033428.640,A,3116.62913,N,12111.62537,E,0.060,0.00,060226,,,A*59
$GPGGA,033428.640,3116.62913,N,12111.62537,E,1,10,0.9,0.0,M,0.0,M,,*65
$GPRMC,033428.680,A,3116.62913,N,12111.62536,E,0.043,270.00,060226,,,A*50
$GPGGA,033428.680,3116.62913,N,12111.62536,E,1,10,0.9,0.0,M,0.0,M,,*68
$GPRMC,033428.720,A,3116.62912,N,12111.62536,E,0.078,180.00,060226,,,A*5E
$GPGGA,033428.720,3116.62912,N,12111.62536,E,1,10,0.9,0.0,M,0.0,M,,*62
$GPRMC,033428.760,A,3116.62913,N,12111.62536,E,0.113,0.00,060226,,,A*5E
$GPGGA,033428.760,3116.62913,N,12111.62536,E,1,10,0.9,0.0,M,0.0,M,,*67
$GPRMC,033428.800,A,3116.62912,N,12111.62536,E,0.080,180.00,060226,,,A*54
$GPGGA,033428.800,3116.62912,N,12111.62536,E,1,10,0.9,0.0,M,0.0,M,,*6F
$GPRMC,033428.840,A,3116.62911,N,12111.62537,E,0.090,120.33,060226,,,A*59
$GPGGA,033428.840,3116.62911,N,12111.62537,E,1,10,0.9,0.0,M,0.0,M,,*69
$GPRMC,033428.880,A,3116.62911,N,12111.62537,E,0.058,180.00,060226,,,A*5B
$GPGGA,033428.880,3116.62911,N,12111.62537,E,1,10,0.9,0.0,M,0.0,M,,*65
$GPRMC,033428.920,A,3116.62910,N,12111.62537,E,0.087,180.00,060226,,,A*53
$GPGGA,033428.920,3116.62910,N,12111.62537,E,1,10,0.9,0.0,M,0.0,M,,*6F
$GPRMC,033428.960,A,3116.62910,N,12111.62537,E,0.136,180.00,060226,,,A*5C
$GPGGA,033428.960,3116.62910,N,12111.62537,E,1,10,0.9,0.0,M,0.0,M,,*6B
$GPRMC,033429.000,A,3116.62909,N,12111.62537,E,0.134,220.52,060226,,,A*56
$GPGGA,033429.000,3116.62909,N,12111.62537,E,1,10,0.9,0.0,M,0.0,M,,*6D
$GPRMC,033429.040,A,3116.62910,N,12111.62536,E,0.031,319.48,060226,,,A*5F
$GPGGA,033429.040,3116.62910,N,12111.62536,E,1,10,0.9,0.0,M,0.0,M,,*60
$GPRMC,033429.080,A,3116.62910,N,12111.62536,E,0.064,0.00,060226,,,A*54
$GPGGA,033429.080,3116.62910,N,12111.62536,E,1,10,0.9,0.0,M,0.0,M,,*6C
$GPRMC,033429.120,A,3116.62910,N,12111.62536,E,0.103,0.00,060226,,,A*5F
$GPGGA,033429.120,3116.62910,N,12111.62536,E,1,10,0.9,0.0,M,0.0,M,,*67
$GPRMC,033429.160,A,3116.62910,N,12111.62536,E,0.091,180.00,060226,,,A*58
$GPGGA,033429.160,3116.62910,N,12111.62536,E,1,10,0.9,0.0,M,0.0,M,,*63
$GPRMC,033429.200,A,3116.62910,N,12111.62537,E,0.060,90.00,060226,,,A*62
$GPGGA,033429.200,3116.62910,N,12111.62537,E,1,10,0.9,0.0,M,0.0,M,,*67
$GPRMC,033429.200,A,3116.62910,N,12111.62537,E,0.060,0.00,060226,,,A*5B
$GPGGA,033429.200,3116.62910,N,12111.62537,E,1,10,0.9,0.0,M,0.0,M,,*67
$GPRMC,033429.240,A,3116.62909,N,12111.62537,E,0.013,180.00,060226,,,A*5A
$GPGGA,033429.240,3116.62909,N,12111.62537,E,1,10,0.9,0.0,M,0.0,M,,*6B
$GPRMC,033429.280,A,3116.62908,N,12111.62537,E,0.031,180.00,060226,,,A*57
$GPGGA,033429.280,3116.62908,N,12111.62537,E,1,10,0.9,0.0,M,0.0,M,,*66
$GPRMC,033429.320,A,3116.62908,N,12111.62537,E,0.006,90.00,060226,,,A*68
$GPGGA,033429.320,3116.62908,N,12111.62537,E,1,10,0.9,0.0,M,0.0,M,,*6D
$GPRMC,033429.360,A,3116.62908,N,12111.62537,E,0.045,180.00,060226,,,A*5B
$GPGGA,033429.360,3116.62908,N,12111.62537,E,1,10,0.9,0.0,M,0.0,M,,*69
$GPRMC,033429.400,A,3116.62907,N,12111.62537,E,0.078,180.00,060226,,,A*5B
$GPGGA,033429.400,3116.62907,N,12111.62537,E,1,10,0.9,0.0,M,0.0,M,,*67
$GPRMC,033429.440,A,3116.62907,N,12111.62538,E,0.076,90.00,060226,,,A*6E
$GPGGA,033429.440,3116.62907,N,12111.62538,E,1,10,0.9,0.0,M,0.0,M,,*6C
$GPRMC,033429.480,A,3116.62907,N,12111.62538,E,0.080,90.00,060226,,,A*6B
$GPGGA,033429.480,3116.62907,N,12111.62538,E,1,10,0.9,0.0,M,0.0,M,,*60
$GPRMC,033429.520,A,3116.62907,N,12111.62538,E,0.013,220.52,060226,,,A*54
$GPGGA,033429.520,3116.62907,N,12111.62538,E,1,10,0.9,0.0,M,0.0,M,,*6B
$GPRMC,033429.560,A,3116.62906,N,12111.62538,E,0.027,180.00,060226,,,A*58
$GPGGA,033429.560,3116.62906,N,12111.62538,E,1,10,0.9,0.0,M,0.0,M,,*6E
$GPRMC,033429.600,A,3116.62907,N,12111.62538,E,0.055,0.00,060226,,,A*50
$GPGGA,033429.600,3116.62907,N,12111.62538,E,1,10,0.9,0.0,M,0.0,M,,*6A
$GPRMC,033429.640,A,3116.62906,N,12111.62538,E,0.023,139.48,060226,,,A*53
$GPGGA,033429.640,3116.62906,N,12111.62538,E,1,10,0.9,0.0,M,0.0,M,,*6F
$GPRMC,033429.680,A,3116.62905,N,12111.62538,E,0.045,180.00,060226,,,A*52
$GPGGA,033429.680,3116.62905,N,12111.62538,E,1,10,0.9,0.0,M,0.0,M,,*60
$GPRMC,033429.680,A,3116.62905,N,12111.62538,E,0.045,0.00,060226,,,A*5B
$GPGGA,033429.680,3116.62905,N,12111.62538,E,1,10,0.9,0.0,M,0.0,M,,*60
$GPRMC,033429.720,A,3116.62905,N,12111.62538,E,0.019,270.00,060226,,,A*5C
$GPGGA,033429.720,3116.62905,N,12111.62538,E,1,10,0.9,0.0,M,0.0,M,,*6B
$GPRMC,033429.760,A,3116.62905,N,12111.62538,E,0.074,180.00,060226,,,A*5F
$GPGGA,033429.760,3116.62905,N,12111.62538,E,1,10,0.9,0.0,M,0.0,M,,*6F
$GPRMC,033429.800,A,3116.62904,N,12111.62538,E,0.074,139.48,060226,,,A*59
$GPGGA,033429.800,3116.62904,N,12111.62538,E,1,10,0.9,0.0,M,0.0,M,,*67
$GPRMC,033429.840,A,3116.62904,N,12111.62539,E,0.062,139.48,060226,,,A*5B
$GPGGA,033429.840,3116.62904,N,12111.62539,E,1,10,0.9,0.0,M,0.0,M,,*62
$GPRMC,033429.880,A,3116.62904,N,12111.62538,E,0.084,319.48,060226,,,A*5E
$GPGGA,033429.880,3116.62904,N,12111.62538,E,1,10,0.9,0.0,M,0.0,M,,*6F
$GPRMC,033429.920,A,3116.62904,N,12111.62538,E,0.087,0.00,060226,,,A*51
$GPGGA,033429.920,3116.62904,N,12111.62538,E,1,10,0.9,0.0,M,0.0,M,,*64
$GPRMC,033429.960,A,3116.62904,N,12111.62538,E,0.091,180.00,060226,,,A*5B
$GPGGA,033429.960,3116.62904,N,12111.62538,E,1,10,0.9,0.0,M,0.0,M,,*60
$GPRMC,033430.000,A,3116.62904,N,12111.62539,E,0.029,90.00,060226,,,A*6E
$GPGGA,033430.000,3116.62904,N,12111.62539,E,1,10,0.9,0.0,M,0.0,M,,*66
$GPRMC,033430.040,A,3116.62903,N,12111.62539,E,0.019,180.00,060226,,,A*5E
$GPGGA,033430.040,3116.62903,N,12111.62539,E,1,10,0.9,0.0,M,0.0,M,,*65
$GPRMC,033430.080,A,3116.62904,N,12111.62539,E,0.103,0.00,060226,,,A*56
$GPGGA,033430.080,3116.62904,N,12111.62539,E,1,10,0.9,0.0,M,0.0,M,,*6E
$GPRMC,033430.120,A,3116.62903,N,12111.62539,E,0.091,180.00,060226,,,A*59
$GPGGA,033430.120,3116.62903,N,12111.62539,E,1,10,0.9,0.0,M,0.0,M,,*62
$GPRMC,033430.160,A,3116.62902,N,12111.62540,E,0.080,139.48,060226,,,A*5C
$GPGGA,033430.160,3116.62902,N,12111.62540,E,1,10,0.9,0.0,M,0.0,M,,*69
$GPRMC,033430.200,A,3116.62902,N,12111.62540,E,0.064,180.00,060226,,,A*5D
$GPGGA,033430.200,3116.62902,N,12111.62540,E,1,10,0.9,0.0,M,0.0,M,,*6C
$GPRMC,033430.240,A,3116.62902,N,12111.62540,E,0.041,0.00,060226,,,A*57
$GPGGA,033430.240,3116.62902,N,12111.62540,E,1,10,0.9,0.0,M,0.0,M,,*68
$GPRMC,033430.280,A,3116.62901,N,12111.62540,E,0.017,180.00,060226,,,A*52
$GPGGA,033430.280,3116.62901,N,12111.62540,E,1,10,0.9,0.0,M,0.0,M,,*67
$GPRMC,033430.320,A,3116.62901,N,12111.62540,E,0.080,139.48,060226,,,A*59
$GPGGA,033430.320,3116.62901,N,12111.62540,E,1,10,0.9,0.0,M,0.0,M,,*6C
$GPRMC,033430.360,A,3116.62901,N,12111.62540,E,0.017,319.48,060226,,,A*53
$GPGGA,033430.360,3116.62901,N,12111.62540,E,1,10,0.9,0.0,M,0.0,M,,*68
$GPRMC,033430.400,A,3116.62901,N,12111.62540,E,0.049,90.00,060226,,,A*67
$GPGGA,033430.400,3116.62901,N,12111.62540,E,1,10,0.9,0.0,M,0.0,M,,*69
$GPRMC,033430.440,A,3116.62901,N,12111.62540,E,0.060,0.00,060226,,,A*51
$GPGGA,033430.440,3116.62901,N,12111.62540,E,1,10,0.9,0.0,M,0.0,M,,*6D
$GPRMC,033430.480,A,3116.62901,N,12111.62541,E,0.078,139.48,060226,,,A*52
$GPGGA,033430.480,3116.62901,N,12111.62541,E,1,10,0.9,0.0,M,0.0,M,,*60
$GPRMC,033430.520,A,3116.62900,N,12111.62541,E,0.051,180.00,060226,,,A*5D
$GPGGA,033430.520,3116.62900,N,12111.62541,E,1,10,0.9,0.0,M,0.0,M,,*6A
$GPRMC,033430.560,A,3116.62900,N,12111.62541,E,0.025,0.00,060226,,,A*53
$GPGGA,033430.560,3116.62900,N,12111.62541,E,1,10,0.9,0.0,M,0.0,M,,*6E
$GPRMC,033430.600,A,3116.62900,N,12111.62541,E,0.039,0.00,060226,,,A*5B
$GPGGA,033430.600,3116.62900,N,12111.62541,E,1,10,0.9,0.0,M,0.0,M,,*6B
$GPRMC,033430.640,A,3116.62900,N,12111.62541,E,0.076,0.00,060226,,,A*54
$GPGGA,033430.640,3116.62900,N,12111.62541,E,1,10,0.9,0.0,M,0.0,M,,*6F
$GPRMC,033430.680,A,3116.62899,N,12111.62541,E,0.055,180.00,060226,,,A*51
$GPGGA,033430.680,3116.62899,N,12111.62541,E,1,10,0.9,0.0,M,0.0,M,,*62
$GPRMC,033430.720,A,3116.62899,N,12111.62541,E,0.023,180.00,060226,,,A*5B
$GPGGA,033430.720,3116.62899,N,12111.62541,E,1,10,0.9,0.0,M,0.0,M,,*69
$GPRMC,033430.760,A,3116.62899,N,12111.62541,E,0.027,0.00,060226,,,A*52
$GPGGA,033430.760,3116.62899,N,12111.62541,E,1,10,0.9,0.0,M,0.0,M,,*6D
$GPRMC,033430.800,A,3116.62898,N,12111.62541,E,0.072,180.00,060226,,,A*53
$GPGGA,033430.800,3116.62898,N,12111.62541,E,1,10,0.9,0.0,M,0.0,M,,*65
$GPRMC,033430.840,A,3116.62898,N,12111.62541,E,0.093,90.00,060226,,,A*68
$GPGGA,033430.840,3116.62898,N,12111.62541,E,1,10,0.9,0.0,M,0.0,M,,*61
$GPRMC,033430.880,A,3116.62898,N,12111.62541,E,0.068,0.00,060226,,,A*59
$GPGGA,033430.880,3116.62898,N,12111.62541,E,1,10,0.9,0.0,M,0.0,M,,*6D
$GPRMC,033430.920,A,3116.62898,N,12111.62542,E,0.056,90.00,060226,,,A*65
$GPGGA,033430.920,3116.62898,N,12111.62542,E,1,10,0.9,0.0,M,0.0,M,,*65
$GPRMC,033430.960,A,3116.62898,N,12111.62541,E,0.016,220.52,060226,,,A*58
$GPGGA,033430.960,3116.62898,N,12111.62541,E,1,10,0.9,0.0,M,0.0,M,,*62
$GPRMC,033431.000,A,3116.62898,N,12111.62541,E,0.051,0.00,060226,,,A*52
$GPGGA,033431.000,3116.62898,N,12111.62541,E,1,10,0.9,0.0,M,0.0,M,,*6C
$GPRMC,033431.040,A,3116.62898,N,12111.62541,E,0.055,0.00,060226,,,A*52
$GPGGA,033431.040,3116.62898,N,12111.62541,E,1,10,0.9,0.0,M,0.0,M,,*68
$GPRMC,033431.080,A,3116.62898,N,12111.62542,E,0.046,90.00,060226,,,A*66
$GPGGA,033431.080,3116.62898,N,12111.62542,E,1,10,0.9,0.0,M,0.0,M,,*67
$GPRMC,033431.120,A,3116.62897,N,12111.62541,E,0.072,220.52,060226,,,A*58
$GPGGA,033431.120,3116.62897,N,12111.62541,E,1,10,0.9,0.0,M,0.0,M,,*60
$GPRMC,033431.160,A,3116.62897,N,12111.62541,E,0.031,270.00,060226,,,A*59
$GPGGA,033431.160,3116.62897,N,12111.62541,E,1,10,0.9,0.0,M,0.0,M,,*64
$GPRMC,033431.200,A,3116.62896,N,12111.62541,E,0.049,139.48,060226,,,A*50
$GPGGA,033431.200,3116.62896,N,12111.62541,E,1,10,0.9,0.0,M,0.0,M,,*60
$GPRMC,033431.240,A,3116.62896,N,12111.62541,E,0.068,0.00,060226,,,A*50
$GPGGA,033431.240,3116.62896,N,12111.62541,E,1,10,0.9,0.0,M,0.0,M,,*64
$GPRMC,033431.280,A,3116.62897,N,12111.62542,E,0.082,40.52,060226,,,A*69
$GPGGA,033431.280,3116.62897,N,12111.62542,E,1,10,0.9,0.0,M,0.0,M,,*6A
$GPRMC,033431.320,A,3116.62896,N,12111.62543,E,0.074,139.48,060226,,,A*5F
$GPGGA,033431.320,3116.62896,N,12111.62543,E,1,10,0.9,0.0,M,0.0,M,,*61
$GPRMC,033431.360,A,3116.62896,N,12111.62543,E,0.078,0.00,060226,,,A*50
$GPGGA,033431.360,3116.62896,N,12111.62543,E,1,10,0.9,0.0,M,0.0,M,,*65
$GPRMC,033431.400,A,3116.62896,N,12111.62543,E,0.082,0.00,060226,,,A*54
$GPGGA,033431.400,3116.62896,N,12111.62543,E,1,10,0.9,0.0,M,0.0,M,,*64
$GPRMC,033431.440,A,3116.62896,N,12111.62543,E,0.039,180.00,060226,,,A*59
$GPGGA,033431.440,3116.62896,N,12111.62543,E,1,10,0.9,0.0,M,0.0,M,,*60
$GPRMC,033431.480,A,3116.62895,N,12111.62542,E,0.035,220.52,060226,,,A*55
$GPGGA,033431.480,3116.62895,N,12111.62542,E,1,10,0.9,0.0,M,0.0,M,,*6E
$GPRMC,033431.520,A,3116.62895,N,12111.62542,E,0.091,180.00,060226,,,A*5E
$GPGGA,033431.520,3116.62895,N,12111.62542,E,1,10,0.9,0.0,M,0.0,M,,*65
$GPRMC,033431.560,A,3116.62895,N,12111.62542,E,0.033,0.00,060226,,,A*5B
$GPGGA,033431.560,3116.62895,N,12111.62542,E,1,10,0.9,0.0,M,0.0,M,,*61
$GPRMC,033431.600,A,3116.62896,N,12111.62542,E,0.111,0.00,060226,,,A*5C
$GPGGA,033431.600,3116.62896,N,12111.62542,E,1,10,0.9,0.0,M,0.0,M,,*67
$GPRMC,033431.640,A,3116.62896,N,12111.62543,E,0.101,90.00,060226,,,A*61
$GPGGA,033431.640,3116.62896,N,12111.62543,E,1,10,0.9,0.0,M,0.0,M,,*62
$GPRMC,033431.680,A,3116.62895,N,12111.62543,E,0.008,139.48,060226,,,A*58
$GPGGA,033431.680,3116.62895,N,12111.62543,E,1,10,0.9,0.0,M,0.0,M,,*6D
$GPRMC,033431.720,A,3116.62895,N,12111.62543,E,0.013,180.00,060226,,,A*57
$GPGGA,033431.720,3116.62895,N,12111.62543,E,1,10,0.9,0.0,M,0.0,M,,*66
$GPRMC,033431.760,A,3116.62895,N,12111.62543,E,0.017,0.00,060226,,,A*5E
$GPGGA,033431.760,3116.62895,N,12111.62543,E,1,10,0.9,0.0,M,0.0,M,,*62
$GPRMC,033431.800,A,3116.62895,N,12111.62543,E,0.084,270.00,060226,,,A*58
$GPGGA,033431.800,3116.62895,N,12111.62543,E,1,10,0.9,0.0,M,0.0,M,,*6B
$GPRMC,033431.840,A,3116.62895,N,12111.62543,E,0.056,90.00,060226,,,A*6F
$GPGGA,033431.840,3116.62895,N,12111.62543,E,1,10,0.9,0.0,M,0.0,M,,*6F
$GPRMC,033431.880,A,3116.62894,N,12111.62543,E,0.039,180.00,060226,,,A*5B
$GPGGA,033431.880,3116.62894,N,12111.62543,E,1,10,0.9,0.0,M,0.0,M,,*62
$GPRMC,033431.920,A,3116.62895,N,12111.62543,E,0.058,0.00,060226,,,A*5F
$GPGGA,033431.920,3116.62895,N,12111.62543,E,1,10,0.9,0.0,M,0.0,M,,*68
$GPRMC,033431.920,A,3116.62895,N,12111.62543,E,0.058,0.00,060226,,,A*5F
$GPGGA,033431.920,3116.62895,N,12111.62543,E,1,10,0.9,0.0,M,0.0,M,,*68
$GPRMC,033431.960,A,3116.62895,N,12111.62543,E,0.085,0.00,060226,,,A*5B
$GPGGA,033431.960,3116.62895,N,12111.62543,E,1,10,0.9,0.0,M,0.0,M,,*6C
