$GPRMC,054111.040,A,3104.65935,N,12106.89114,E,54.65,331.66,250126,,,*11
$GPGGA,054111.040,3104.65935,N,12106.89114,E,3,12,0.50,5.80,M,,M,,*44
$GPRMC,054111.080,A,3104.65988,N,12106.89080,E,54.49,331.23,250126,,,*18
$GPGGA,054111.080,3104.65988,N,12106.89080,E,3,12,0.50,5.80,M,,M,,*42
$GPRMC,054111.120,A,3104.66040,N,12106.89045,E,54.25,330.82,250126,,,*14
$GPGGA,054111.120,3104.66040,N,12106.89045,E,3,12,0.50,5.80,M,,M,,*4E
$GPRMC,054111.200,A,3104.66144,N,12106.88974,E,54.21,329.76,250126,,,*1D
$GPGGA,054111.200,3104.66144,N,12106.88974,E,3,12,0.50,5.80,M,,M,,*40
$GPRMC,054111.240,A,3104.66196,N,12106.88938,E,54.32,329.17,250126,,,*1B
$GPGGA,054111.240,3104.66196,N,12106.88938,E,3,12,0.50,5.80,M,,M,,*43
$GPRMC,054111.280,A,3104.66247,N,12106.88901,E,54.30,328.71,250126,,,*11
$GPGGA,054111.280,3104.66247,N,12106.88901,E,3,12,0.50,5.80,M,,M,,*4A
$GPRMC,054111.320,A,3104.66298,N,12106.88864,E,54.12,328.20,250126,,,*1E
$GPGGA,054111.320,3104.66298,N,12106.88864,E,3,12,0.50,5.80,M,,M,,*41
$GPRMC,054111.360,A,3104.66348,N,12106.88826,E,53.98,327.71,250126,,,*1E
$GPGGA,054111.360,3104.66348,N,12106.88826,E,3,12,0.50,5.80,M,,M,,*4F
$GPRMC,054111.400,A,3104.66398,N,12106.88789,E,53.77,327.22,250126,,,*1F
$GPGGA,054111.400,3104.66398,N,12106.88789,E,3,12,0.50,5.80,M,,M,,*49
$GPRMC,054111.480,A,3104.66498,N,12106.88712,E,53.55,326.62,250126,,,*17
$GPGGA,054111.480,3104.66498,N,12106.88712,E,3,12,0.50,5.80,M,,M,,*44
$GPRMC,054111.520,A,3104.66547,N,12106.88673,E,53.68,326.18,250126,,,*1A
$GPGGA,054111.520,3104.66547,N,12106.88673,E,3,12,0.50,5.80,M,,M,,*4A
$GPRMC,054111.560,A,3104.66596,N,12106.88633,E,53.67,325.71,250126,,,*15
$GPGGA,054111.560,3104.66596,N,12106.88633,E,3,12,0.50,5.80,M,,M,,*46
$GPRMC,054111.600,A,3104.66645,N,12106.88593,E,53.62,325.29,250126,,,*1C
$GPGGA,054111.600,3104.66645,N,12106.88593,E,3,12,0.50,5.80,M,,M,,*47
$GPRMC,054111.640,A,3104.66693,N,12106.88553,E,53.55,325.00,250126,,,*10
$GPGGA,054111.640,3104.66693,N,12106.88553,E,3,12,0.50,5.80,M,,M,,*44
$GPRMC,054111.680,A,3104.66742,N,12106.88514,E,53.34,324.99,250126,,,*14
$GPGGA,054111.680,3104.66742,N,12106.88514,E,3,12,0.50,5.80,M,,M,,*46
$GPRMC,054111.720,A,3104.66790,N,12106.88474,E,53.25,324.78,250126,,,*18
$GPGGA,054111.720,3104.66790,N,12106.88474,E,3,12,0.50,5.90,M,,M,,*44
$GPRMC,054111.760,A,3104.66838,N,12106.88434,E,53.09,324.66,250126,,,*14
$GPGGA,054111.760,3104.66838,N,12106.88434,E,3,12,0.50,5.90,M,,M,,*49
$GPRMC,054111.800,A,3104.66886,N,12106.88394,E,53.09,324.49,250126,,,*18
$GPGGA,054111.800,3104.66886,N,12106.88394,E,3,12,0.50,5.90,M,,M,,*48
$GPRMC,054111.840,A,3104.66934,N,12106.88354,E,53.18,324.31,250126,,,*17
$GPGGA,054111.840,3104.66934,N,12106.88354,E,3,12,0.50,5.90,M,,M,,*48
$GPRMC,054111.880,A,3104.66982,N,12106.88313,E,53.15,324.12,250126,,,*19
$GPGGA,054111.880,3104.66982,N,12106.88313,E,3,12,0.50,5.90,M,,M,,*4A
$GPRMC,054111.920,A,3104.67029,N,12106.88273,E,53.12,323.96,250126,,,*10
$GPGGA,054111.920,3104.67029,N,12106.88273,E,3,12,0.50,5.90,M,,M,,*4F
$GPRMC,054111.960,A,3104.67077,N,12106.88232,E,53.06,324.04,250126,,,*13
$GPGGA,054111.960,3104.67077,N,12106.88232,E,3,12,0.50,5.90,M,,M,,*45
$GPRMC,054112.040,A,3104.67172,N,12106.88151,E,52.74,323.64,250126,,,*1C
$GPGGA,054112.040,3104.67172,N,12106.88151,E,3,12,0.50,5.90,M,,M,,*4F
$GPRMC,054112.080,A,3104.67219,N,12106.88111,E,52.70,323.38,250126,,,*17
$GPGGA,054112.080,3104.67219,N,12106.88111,E,3,12,0.50,5.90,M,,M,,*49
$GPRMC,054112.160,A,3104.67313,N,12106.88030,E,52.66,323.42,250126,,,*1B
$GPGGA,054112.160,3104.67313,N,12106.88030,E,3,12,0.50,5.90,M,,M,,*4F
$GPRMC,054112.200,A,3104.67360,N,12106.87989,E,52.74,323.54,250126,,,*1A
$GPGGA,054112.200,3104.67360,N,12106.87989,E,3,12,0.50,5.80,M,,M,,*4B
$GPRMC,054112.240,A,3104.67407,N,12106.87949,E,52.67,323.64,250126,,,*15
$GPGGA,054112.240,3104.67407,N,12106.87949,E,3,12,0.50,5.80,M,,M,,*45
$GPRMC,054112.280,A,3104.67454,N,12106.87908,E,52.59,323.64,250126,,,*17
$GPGGA,054112.280,3104.67454,N,12106.87908,E,3,12,0.50,5.80,M,,M,,*4A
$GPRMC,054112.360,A,3104.67548,N,12106.87828,E,52.23,323.57,250126,,,*1A
$GPGGA,054112.360,3104.67548,N,12106.87828,E,3,12,0.50,5.90,M,,M,,*4B
$GPRMC,054112.400,A,3104.67594,N,12106.87788,E,52.30,323.65,250126,,,*1C
$GPGGA,054112.400,3104.67594,N,12106.87788,E,3,12,0.50,5.80,M,,M,,*4F
$GPRMC,054112.440,A,3104.67641,N,12106.87748,E,52.19,323.75,250126,,,*15
$GPGGA,054112.440,3104.67641,N,12106.87748,E,3,12,0.50,5.90,M,,M,,*4D
$GPRMC,054112.480,A,3104.67687,N,12106.87709,E,51.79,323.91,250126,,,*19
$GPGGA,054112.480,3104.67687,N,12106.87709,E,3,12,0.50,5.90,M,,M,,*4E
$GPRMC,054112.520,A,3104.67734,N,12106.87670,E,51.57,323.91,250126,,,*18
$GPGGA,054112.520,3104.67734,N,12106.87670,E,3,12,0.50,5.90,M,,M,,*43
$GPRMC,054112.560,A,3104.67779,N,12106.87631,E,51.30,323.96,250126,,,*16
$GPGGA,054112.560,3104.67779,N,12106.87631,E,3,12,0.50,5.90,M,,M,,*4B
$GPRMC,054112.600,A,3104.67825,N,12106.87592,E,50.95,323.93,250126,,,*14
$GPGGA,054112.600,3104.67825,N,12106.87592,E,3,12,0.50,5.90,M,,M,,*42
$GPRMC,054112.640,A,3104.67870,N,12106.87554,E,50.65,324.06,250126,,,*1E
$GPGGA,054112.640,3104.67870,N,12106.87554,E,3,12,0.50,5.90,M,,M,,*4C
$GPRMC,054112.680,A,3104.67915,N,12106.87516,E,50.15,324.07,250126,,,*10
$GPGGA,054112.680,3104.67915,N,12106.87516,E,3,12,0.50,5.80,M,,M,,*45
$GPRMC,054112.720,A,3104.67960,N,12106.87479,E,49.52,324.10,250126,,,*1C
$GPGGA,054112.720,3104.67960,N,12106.87479,E,3,12,0.50,5.90,M,,M,,*45
$GPRMC,054112.760,A,3104.68004,N,12106.87442,E,48.83,324.16,250126,,,*1F
$GPGGA,054112.760,3104.68004,N,12106.87442,E,3,12,0.50,5.90,M,,M,,*4D
$GPRMC,054112.800,A,3104.68047,N,12106.87406,E,48.15,324.27,250126,,,*1C
$GPGGA,054112.800,3104.68047,N,12106.87406,E,3,12,0.50,5.90,M,,M,,*43
$GPRMC,054112.840,A,3104.68090,N,12106.87370,E,47.64,324.35,250126,,,*1E
$GPGGA,054112.840,3104.68090,N,12106.87370,E,3,12,0.50,5.90,M,,M,,*4B
$GPRMC,054112.880,A,3104.68132,N,12106.87335,E,47.16,324.56,250126,,,*1A
$GPGGA,054112.880,3104.68132,N,12106.87335,E,3,12,0.50,5.90,M,,M,,*4F
$GPRMC,054112.920,A,3104.68175,N,12106.87301,E,46.66,324.81,250126,,,*19
$GPGGA,054112.920,3104.68175,N,12106.87301,E,3,12,0.50,5.90,M,,M,,*40
$GPRMC,054112.960,A,3104.68216,N,12106.87267,E,46.09,324.87,250126,,,*15
$GPGGA,054112.960,3104.68216,N,12106.87267,E,3,12,0.50,5.90,M,,M,,*43
$GPRMC,054113.040,A,3104.68298,N,12106.87201,E,44.61,325.17,250126,,,*1D
$GPGGA,054113.040,3104.68298,N,12106.87201,E,3,12,0.50,5.80,M,,M,,*4E
$GPRMC,054113.080,A,3104.68338,N,12106.87169,E,43.83,325.35,250126,,,*1C
$GPGGA,054113.080,3104.68338,N,12106.87169,E,3,12,0.50,5.80,M,,M,,*44
$GPRMC,054113.160,A,3104.68416,N,12106.87108,E,42.52,325.90,250126,,,*1D
$GPGGA,054113.160,3104.68416,N,12106.87108,E,3,12,0.50,5.80,M,,M,,*47
$GPRMC,054113.200,A,3104.68454,N,12106.87078,E,41.88,326.08,250126,,,*1E
$GPGGA,054113.200,3104.68454,N,12106.87078,E,3,12,0.50,5.80,M,,M,,*42
$GPRMC,054113.240,A,3104.68492,N,12106.87049,E,41.24,326.31,250126,,,*1E
$GPGGA,054113.240,3104.68492,N,12106.87049,E,3,12,0.50,5.80,M,,M,,*4E
$GPRMC,054113.320,A,3104.68566,N,12106.86993,E,39.85,327.08,250126,,,*13
$GPGGA,054113.320,3104.68566,N,12106.86993,E,3,12,0.50,5.80,M,,M,,*4C
$GPRMC,054113.360,A,3104.68603,N,12106.86966,E,39.16,327.83,250126,,,*14
$GPGGA,054113.360,3104.68603,N,12106.86966,E,3,12,0.50,5.80,M,,M,,*42
$GPRMC,054113.400,A,3104.68639,N,12106.86941,E,38.50,328.25,250126,,,*19
$GPGGA,054113.400,3104.68639,N,12106.86941,E,3,12,0.50,5.80,M,,M,,*4F
$GPRMC,054113.440,A,3104.68675,N,12106.86916,E,37.88,329.01,250126,,,*1A
$GPGGA,054113.440,3104.68675,N,12106.86916,E,3,12,0.50,5.80,M,,M,,*41
$GPRMC,054113.480,A,3104.68711,N,12106.86892,E,37.54,329.66,250126,,,*18
$GPGGA,054113.480,3104.68711,N,12106.86892,E,3,12,0.50,5.80,M,,M,,*43
$GPRMC,054113.520,A,3104.68746,N,12106.86869,E,37.13,330.41,250126,,,*1B
$GPGGA,054113.520,3104.68746,N,12106.86869,E,3,12,0.50,5.80,M,,M,,*4E
$GPRMC,054113.560,A,3104.68782,N,12106.86846,E,36.52,331.10,250126,,,*1B
$GPGGA,054113.560,3104.68782,N,12106.86846,E,3,12,0.50,5.80,M,,M,,*4F
$GPRMC,054113.600,A,3104.68817,N,12106.86825,E,35.89,331.98,250126,,,*1D
$GPGGA,054113.600,3104.68817,N,12106.86825,E,3,12,0.50,5.80,M,,M,,*4C
$GPRMC,054113.640,A,3104.68853,N,12106.86805,E,35.34,333.14,250126,,,*1B
$GPGGA,054113.640,3104.68853,N,12106.86805,E,3,12,0.50,5.80,M,,M,,*4A
$GPRMC,054113.680,A,3104.68887,N,12106.86786,E,35.00,334.21,250126,,,*1C
$GPGGA,054113.680,3104.68887,N,12106.86786,E,3,12,0.50,5.80,M,,M,,*4B
$GPRMC,054113.720,A,3104.68923,N,12106.86767,E,34.94,335.31,250126,,,*1B
$GPGGA,054113.720,3104.68923,N,12106.86767,E,3,12,0.50,5.80,M,,M,,*40
$GPRMC,054113.760,A,3104.68959,N,12106.86749,E,35.02,336.27,250126,,,*14
$GPGGA,054113.760,3104.68959,N,12106.86749,E,3,12,0.50,5.80,M,,M,,*45
$GPRMC,054113.800,A,3104.68995,N,12106.86732,E,35.08,337.21,250126,,,*1C
$GPGGA,054113.800,3104.68995,N,12106.86732,E,3,12,0.50,5.80,M,,M,,*40
$GPRMC,054113.840,A,3104.69032,N,12106.86716,E,35.20,338.24,250126,,,*1B
$GPGGA,054113.840,3104.69032,N,12106.86716,E,3,12,0.50,5.80,M,,M,,*47
$GPRMC,054113.880,A,3104.69069,N,12106.86701,E,34.99,339.38,250126,,,*10
$GPGGA,054113.880,3104.69069,N,12106.86701,E,3,12,0.50,5.80,M,,M,,*43
$GPRMC,054113.920,A,3104.69105,N,12106.86686,E,34.62,340.55,250126,,,*1F
$GPGGA,054113.920,3104.69105,N,12106.86686,E,3,12,0.50,5.80,M,,M,,*4D
$GPRMC,054113.960,A,3104.69142,N,12106.86672,E,34.46,341.54,250126,,,*15
$GPGGA,054113.960,3104.69142,N,12106.86672,E,3,12,0.50,5.80,M,,M,,*41
$GPRMC,054114.040,A,3104.69215,N,12106.86647,E,34.27,343.86,250126,,,*14
$GPGGA,054114.040,3104.69215,N,12106.86647,E,3,12,0.50,5.80,M,,M,,*4A
$GPRMC,054114.080,A,3104.69253,N,12106.86637,E,34.52,345.23,250126,,,*16
$GPGGA,054114.080,3104.69253,N,12106.86637,E,3,12,0.50,5.80,M,,M,,*43
$GPRMC,054114.160,A,3104.69328,N,12106.86619,E,34.38,348.06,250126,,,*1E
$GPGGA,054114.160,3104.69328,N,12106.86619,E,3,12,0.50,5.80,M,,M,,*4D
$GPRMC,054114.200,A,3104.69365,N,12106.86612,E,33.82,349.67,250126,,,*19
$GPGGA,054114.200,3104.69365,N,12106.86612,E,3,12,0.50,5.80,M,,M,,*4A
$GPRMC,054114.240,A,3104.69402,N,12106.86605,E,33.56,350.64,250126,,,*1F
$GPGGA,054114.240,3104.69402,N,12106.86605,E,3,12,0.50,5.80,M,,M,,*4E
$GPRMC,054114.280,A,3104.69439,N,12106.86599,E,33.47,351.51,250126,,,*1A
$GPGGA,054114.280,3104.69439,N,12106.86599,E,3,12,0.50,5.80,M,,M,,*4C
$GPRMC,054114.320,A,3104.69476,N,12106.86594,E,33.53,352.63,250126,,,*10
$GPGGA,054114.320,3104.69476,N,12106.86594,E,3,12,0.50,5.80,M,,M,,*41
$GPRMC,054114.360,A,3104.69513,N,12106.86591,E,33.55,353.96,250126,,,*1E
$GPGGA,054114.360,3104.69513,N,12106.86591,E,3,12,0.50,5.80,M,,M,,*42
$GPRMC,054114.400,A,3104.69551,N,12106.86588,E,33.74,355.63,250126,,,*1E
$GPGGA,054114.400,3104.69551,N,12106.86588,E,3,12,0.50,5.80,M,,M,,*4D
$GPRMC,054114.440,A,3104.69588,N,12106.86587,E,33.51,357.54,250126,,,*10
$GPGGA,054114.440,3104.69588,N,12106.86587,E,3,12,0.50,5.80,M,,M,,*42
$GPRMC,054114.480,A,3104.69625,N,12106.86587,E,33.16,358.95,250126,,,*19
$GPGGA,054114.480,3104.69625,N,12106.86587,E,3,12,0.50,5.80,M,,M,,*4A
$GPRMC,054114.520,A,3104.69661,N,12106.86588,E,32.94,0.05,250126,,,*11
$GPGGA,054114.520,3104.69661,N,12106.86588,E,3,12,0.50,5.80,M,,M,,*4E
$GPRMC,054114.560,A,3104.69698,N,12106.86590,E,32.74,1.23,250126,,,*11
$GPGGA,054114.560,3104.69698,N,12106.86590,E,3,12,0.50,5.80,M,,M,,*45
$GPRMC,054114.600,A,3104.69733,N,12106.86592,E,32.50,2.78,250126,,,*1D
$GPGGA,054114.600,3104.69733,N,12106.86592,E,3,12,0.50,5.70,M,,M,,*4D
$GPRMC,054114.640,A,3104.69769,N,12106.86596,E,32.47,4.27,250126,,,*18
$GPGGA,054114.640,3104.69769,N,12106.86596,E,3,12,0.50,5.70,M,,M,,*42
$GPRMC,054114.680,A,3104.69806,N,12106.86601,E,32.69,5.42,250126,,,*11
$GPGGA,054114.680,3104.69806,N,12106.86601,E,3,12,0.50,5.70,M,,M,,*45
$GPRMC,054114.720,A,3104.69843,N,12106.86606,E,32.84,6.54,250126,,,*1B
$GPGGA,054114.720,3104.69843,N,12106.86606,E,3,12,0.50,5.70,M,,M,,*48
$GPRMC,054114.760,A,3104.69879,N,12106.86614,E,32.80,7.94,250126,,,*1C
$GPGGA,054114.760,3104.69879,N,12106.86614,E,3,12,0.50,5.70,M,,M,,*46
$GPRMC,054114.800,A,3104.69914,N,12106.86622,E,32.69,9.61,250126,,,*19
$GPGGA,054114.800,3104.69914,N,12106.86622,E,3,12,0.50,5.70,M,,M,,*40
$GPRMC,054114.840,A,3104.69949,N,12106.86631,E,32.48,11.26,250126,,,*2E
$GPGGA,054114.840,3104.69949,N,12106.86631,E,3,12,0.50,5.70,M,,M,,*4E
$GPRMC,054114.880,A,3104.69984,N,12106.86641,E,32.25,12.90,250126,,,*21
$GPGGA,054114.880,3104.69984,N,12106.86641,E,3,12,0.50,5.70,M,,M,,*44
$GPRMC,054114.920,A,3104.70018,N,12106.86653,E,31.98,14.51,250126,,,*23
$GPGGA,054114.920,3104.70018,N,12106.86653,E,3,12,0.50,5.70,M,,M,,*48
$GPRMC,054114.960,A,3104.70052,N,12106.86665,E,31.89,15.98,250126,,,*28
$GPGGA,054114.960,3104.70052,N,12106.86665,E,3,12,0.50,5.70,M,,M,,*47
$GPRMC,054115.040,A,3104.70119,N,12106.86690,E,31.72,18.59,250126,,,*22
$GPGGA,054115.040,3104.70119,N,12106.86690,E,3,12,0.50,5.70,M,,M,,*49
$GPRMC,054115.080,A,3104.70152,N,12106.86705,E,31.72,19.77,250126,,,*21
$GPGGA,054115.080,3104.70152,N,12106.86705,E,3,12,0.50,5.70,M,,M,,*47
$GPRMC,054115.120,A,3104.70185,N,12106.86720,E,31.73,21.20,250126,,,*2F
$GPGGA,054115.120,3104.70185,N,12106.86720,E,3,12,0.50,5.70,M,,M,,*41
$GPRMC,054115.160,A,3104.70217,N,12106.86738,E,31.61,23.06,250126,,,*2F
$GPGGA,054115.160,3104.70217,N,12106.86738,E,3,12,0.50,5.70,M,,M,,*44
$GPRMC,054115.240,A,3104.70280,N,12106.86773,E,31.51,25.56,250126,,,*2F
$GPGGA,054115.240,3104.70280,N,12106.86773,E,3,12,0.50,5.70,M,,M,,*44
$GPRMC,054115.280,A,3104.70311,N,12106.86792,E,31.46,26.63,250126,,,*26
$GPGGA,054115.280,3104.70311,N,12106.86792,E,3,12,0.50,5.70,M,,M,,*4E
$GPRMC,054115.320,A,3104.70341,N,12106.86812,E,31.33,28.09,250126,,,*2F
$GPGGA,054115.320,3104.70341,N,12106.86812,E,3,12,0.50,5.70,M,,M,,*47
$GPRMC,054115.360,A,3104.70372,N,12106.86832,E,31.34,29.35,250126,,,*20
$GPGGA,054115.360,3104.70372,N,12106.86832,E,3,12,0.50,5.70,M,,M,,*41
$GPRMC,054115.400,A,3104.70401,N,12106.86853,E,31.43,30.60,250126,,,*2D
$GPGGA,054115.400,3104.70401,N,12106.86853,E,3,12,0.50,5.70,M,,M,,*44
$GPRMC,054115.440,A,3104.70431,N,12106.86875,E,31.33,32.10,250126,,,*2C
$GPGGA,054115.440,3104.70431,N,12106.86875,E,3,12,0.50,5.70,M,,M,,*47
$GPRMC,054115.480,A,3104.70459,N,12106.86899,E,31.12,33.82,250126,,,*25
$GPGGA,054115.480,3104.70459,N,12106.86899,E,3,12,0.50,5.60,M,,M,,*46
$GPRMC,054115.520,A,3104.70486,N,12106.86923,E,31.21,35.42,250126,,,*26
$GPGGA,054115.520,3104.70486,N,12106.86923,E,3,12,0.50,5.60,M,,M,,*4F
$GPRMC,054115.600,A,3104.70542,N,12106.86974,E,31.89,37.78,250126,,,*25
$GPGGA,054115.600,3104.70542,N,12106.86974,E,3,12,0.50,5.60,M,,M,,*45
$GPRMC,054115.640,A,3104.70570,N,12106.87000,E,31.86,38.66,250126,,,*24
$GPGGA,054115.640,3104.70570,N,12106.87000,E,3,12,0.50,5.60,M,,M,,*4B
$GPRMC,054115.680,A,3104.70596,N,12106.87027,E,31.84,40.10,250126,,,*29
$GPGGA,054115.680,3104.70596,N,12106.87027,E,3,12,0.50,5.60,M,,M,,*4A
$GPRMC,054115.720,A,3104.70622,N,12106.87055,E,31.81,42.00,250126,,,*2D
$GPGGA,054115.720,3104.70622,N,12106.87055,E,3,12,0.50,5.60,M,,M,,*48
$GPRMC,054115.800,A,3104.70672,N,12106.87114,E,31.91,44.61,250126,,,*21
$GPGGA,054115.800,3104.70672,N,12106.87114,E,3,12,0.50,5.60,M,,M,,*44
$GPRMC,054115.880,A,3104.70720,N,12106.87175,E,32.19,47.41,250126,,,*2A
$GPGGA,054115.880,3104.70720,N,12106.87175,E,3,12,0.50,5.60,M,,M,,*4D
$GPRMC,054115.920,A,3104.70743,N,12106.87207,E,32.15,48.82,250126,,,*2E
$GPGGA,054115.920,3104.70743,N,12106.87207,E,3,12,0.50,5.60,M,,M,,*45
$GPRMC,054115.960,A,3104.70765,N,12106.87240,E,32.30,50.23,250126,,,*28
$GPGGA,054115.960,3104.70765,N,12106.87240,E,3,12,0.50,5.60,M,,M,,*46
$GPRMC,054116.040,A,3104.70806,N,12106.87307,E,31.77,54.50,250126,,,*28
$GPGGA,054116.040,3104.70806,N,12106.87307,E,3,12,0.50,5.60,M,,M,,*46
$GPRMC,054116.080,A,3104.70825,N,12106.87341,E,31.52,55.65,250126,,,*27
$GPGGA,054116.080,3104.70825,N,12106.87341,E,3,12,0.50,5.60,M,,M,,*49
$GPRMC,054116.160,A,3104.70863,N,12106.87410,E,31.60,57.68,250126,,,*27
$GPGGA,054116.160,3104.70863,N,12106.87410,E,3,12,0.50,5.60,M,,M,,*47
$GPRMC,054116.200,A,3104.70880,N,12106.87446,E,31.77,59.63,250126,,,*2F
$GPGGA,054116.200,3104.70880,N,12106.87446,E,3,12,0.50,5.60,M,,M,,*4C
$GPRMC,054116.240,A,3104.70897,N,12106.87482,E,31.86,61.01,250126,,,*24
$GPGGA,054116.240,3104.70897,N,12106.87482,E,3,12,0.50,5.60,M,,M,,*46
$GPRMC,054116.280,A,3104.70912,N,12106.87519,E,31.75,62.27,250126,,,*2C
$GPGGA,054116.280,3104.70912,N,12106.87519,E,3,12,0.50,5.60,M,,M,,*45
$GPRMC,054116.320,A,3104.70927,N,12106.87556,E,31.55,63.64,250126,,,*2E
$GPGGA,054116.320,3104.70927,N,12106.87556,E,3,12,0.50,5.60,M,,M,,*43
$GPRMC,054116.360,A,3104.70941,N,12106.87593,E,31.38,65.63,250126,,,*29
$GPGGA,054116.360,3104.70941,N,12106.87593,E,3,12,0.50,5.70,M,,M,,*4F
$GPRMC,054116.400,A,3104.70954,N,12106.87631,E,31.28,67.23,250126,,,*20
$GPGGA,054116.400,3104.70954,N,12106.87631,E,3,12,0.50,5.70,M,,M,,*41
$GPRMC,054116.440,A,3104.70966,N,12106.87669,E,31.40,68.43,250126,,,*2F
$GPGGA,054116.440,3104.70966,N,12106.87669,E,3,12,0.50,5.70,M,,M,,*49
$GPRMC,054116.480,A,3104.70978,N,12106.87707,E,31.52,69.85,250126,,,*2D
$GPGGA,054116.480,3104.70978,N,12106.87707,E,3,12,0.50,5.70,M,,M,,*43
$GPRMC,054116.520,A,3104.70989,N,12106.87746,E,31.46,71.36,250126,,,*29
$GPGGA,054116.520,3104.70989,N,12106.87746,E,3,12,0.50,5.70,M,,M,,*43
$GPRMC,054116.600,A,3104.71007,N,12106.87825,E,31.37,74.44,250126,,,*2A
$GPGGA,054116.600,3104.71007,N,12106.87825,E,3,12,0.50,5.80,M,,M,,*49
$GPRMC,054116.640,A,3104.71015,N,12106.87864,E,31.18,75.90,250126,,,*2D
$GPGGA,054116.640,3104.71015,N,12106.87864,E,3,12,0.50,5.80,M,,M,,*4B
$GPRMC,054116.680,A,3104.71022,N,12106.87904,E,31.31,77.50,250126,,,*27
$GPGGA,054116.680,3104.71022,N,12106.87904,E,3,12,0.50,5.80,M,,M,,*44
$GPRMC,054116.720,A,3104.71028,N,12106.87943,E,31.23,78.98,250126,,,*2D
$GPGGA,054116.720,3104.71028,N,12106.87943,E,3,12,0.50,5.80,M,,M,,*46
$GPRMC,054116.760,A,3104.71034,N,12106.87983,E,31.31,80.77,250126,,,*2D
$GPGGA,054116.760,3104.71034,N,12106.87983,E,3,12,0.50,5.80,M,,M,,*43
$GPRMC,054116.800,A,3104.71038,N,12106.88024,E,31.51,81.90,250126,,,*2D
$GPGGA,054116.800,3104.71038,N,12106.88024,E,3,12,0.50,5.80,M,,M,,*4D
$GPRMC,054116.840,A,3104.71042,N,12106.88065,E,31.59,82.84,250126,,,*2F
$GPGGA,054116.840,3104.71042,N,12106.88065,E,3,12,0.50,5.80,M,,M,,*41
$GPRMC,054116.880,A,3104.71046,N,12106.88105,E,31.55,84.14,250126,,,*23
$GPGGA,054116.880,3104.71046,N,12106.88105,E,3,12,0.50,5.80,M,,M,,*4E
$GPRMC,054116.920,A,3104.71048,N,12106.88147,E,31.71,85.32,250126,,,*23
$GPGGA,054116.920,3104.71048,N,12106.88147,E,3,12,0.50,5.80,M,,M,,*4D
$GPRMC,054116.960,A,3104.71049,N,12106.88187,E,31.73,86.83,250126,,,*21
$GPGGA,054116.960,3104.71049,N,12106.88187,E,3,12,0.50,5.90,M,,M,,*45
$GPRMC,054117.040,A,3104.71050,N,12106.88270,E,31.87,89.17,250126,,,*21
$GPGGA,054117.040,3104.71050,N,12106.88270,E,3,12,0.50,5.90,M,,M,,*4C
$GPRMC,054117.080,A,3104.71050,N,12106.88312,E,32.13,90.10,250126,,,*29
$GPGGA,054117.080,3104.71050,N,12106.88312,E,3,12,0.50,5.90,M,,M,,*45
$GPRMC,054117.160,A,3104.71047,N,12106.88395,E,32.27,92.40,250126,,,*2F
$GPGGA,054117.160,3104.71047,N,12106.88395,E,3,12,0.50,5.90,M,,M,,*43
$GPRMC,054117.200,A,3104.71044,N,12106.88437,E,32.43,93.72,250126,,,*24
$GPGGA,054117.200,3104.71044,N,12106.88437,E,3,12,0.50,5.90,M,,M,,*4A
$GPRMC,054117.240,A,3104.71041,N,12106.88479,E,32.60,94.70,250126,,,*2B
$GPGGA,054117.240,3104.71041,N,12106.88479,E,3,12,0.50,5.90,M,,M,,*41
$GPRMC,054117.280,A,3104.71037,N,12106.88522,E,32.78,95.64,250126,,,*24
$GPGGA,054117.280,3104.71037,N,12106.88522,E,3,12,0.50,5.90,M,,M,,*43
$GPRMC,054117.320,A,3104.71033,N,12106.88564,E,33.11,96.42,250126,,,*20
$GPGGA,054117.320,3104.71033,N,12106.88564,E,3,12,0.50,6.00,M,,M,,*44
$GPRMC,054117.360,A,3104.71028,N,12106.88607,E,33.31,97.28,250126,,,*27
$GPGGA,054117.360,3104.71028,N,12106.88607,E,3,12,0.50,6.00,M,,M,,*4C
$GPRMC,054117.400,A,3104.71022,N,12106.88649,E,33.44,98.37,250126,,,*25
$GPGGA,054117.400,3104.71022,N,12106.88649,E,3,12,0.50,6.00,M,,M,,*4D
$GPRMC,054117.440,A,3104.71016,N,12106.88693,E,33.66,99.45,250126,,,*25
$GPGGA,054117.440,3104.71016,N,12106.88693,E,3,12,0.50,6.00,M,,M,,*49
$GPRMC,054117.480,A,3104.71008,N,12106.88736,E,33.95,100.35,250126,,,*12
$GPGGA,054117.480,3104.71008,N,12106.88736,E,3,12,0.50,6.00,M,,M,,*44
$GPRMC,054117.520,A,3104.71001,N,12106.88779,E,34.11,101.25,250126,,,*10
$GPGGA,054117.520,3104.71001,N,12106.88779,E,3,12,0.50,6.00,M,,M,,*4D
$GPRMC,054117.560,A,3104.70992,N,12106.88822,E,34.20,102.40,250126,,,*15
$GPGGA,054117.560,3104.70992,N,12106.88822,E,3,12,0.50,6.10,M,,M,,*4B
$GPRMC,054117.600,A,3104.70983,N,12106.88865,E,34.26,103.34,250126,,,*17
$GPGGA,054117.600,3104.70983,N,12106.88865,E,3,12,0.50,6.10,M,,M,,*4D
$GPRMC,054117.640,A,3104.70973,N,12106.88908,E,34.44,104.24,250126,,,*14
$GPGGA,054117.640,3104.70973,N,12106.88908,E,3,12,0.50,6.10,M,,M,,*4C
$GPRMC,054117.680,A,3104.70962,N,12106.88951,E,34.68,105.19,250126,,,*15
$GPGGA,054117.680,3104.70962,N,12106.88951,E,3,12,0.50,6.10,M,,M,,*4C
$GPRMC,054117.720,A,3104.70951,N,12106.88995,E,35.08,106.04,250126,,,*1E
$GPGGA,054117.720,3104.70951,N,12106.88995,E,3,12,0.50,6.10,M,,M,,*4F
$GPRMC,054117.760,A,3104.70940,N,12106.89039,E,35.45,106.58,250126,,,*14
$GPGGA,054117.760,3104.70940,N,12106.89039,E,3,12,0.50,6.10,M,,M,,*45
$GPRMC,054117.800,A,3104.70928,N,12106.89083,E,35.72,107.28,250126,,,*10
$GPGGA,054117.800,3104.70928,N,12106.89083,E,3,12,0.50,6.20,M,,M,,*40
$GPRMC,054117.840,A,3104.70915,N,12106.89127,E,35.83,108.38,250126,,,*15
$GPGGA,054117.840,3104.70915,N,12106.89127,E,3,12,0.50,6.20,M,,M,,*45
$GPRMC,054117.880,A,3104.70901,N,12106.89171,E,35.88,109.30,250126,,,*1D
$GPGGA,054117.880,3104.70901,N,12106.89171,E,3,12,0.50,6.20,M,,M,,*4F
$GPRMC,054117.920,A,3104.70887,N,12106.89215,E,36.24,110.20,250126,,,*14
$GPGGA,054117.920,3104.70887,N,12106.89215,E,3,12,0.50,6.20,M,,M,,*4A
$GPRMC,054117.960,A,3104.70872,N,12106.89259,E,36.58,110.86,250126,,,*15
$GPGGA,054117.960,3104.70872,N,12106.89259,E,3,12,0.50,6.20,M,,M,,*4C
$GPRMC,054118.040,A,3104.70842,N,12106.89348,E,37.36,111.97,250126,,,*1B
$GPGGA,054118.040,3104.70842,N,12106.89348,E,3,12,0.50,6.30,M,,M,,*4B
$GPRMC,054118.080,A,3104.70825,N,12106.89393,E,37.76,112.69,250126,,,*16
$GPGGA,054118.080,3104.70825,N,12106.89393,E,3,12,0.60,6.30,M,,M,,*43
$GPRMC,054118.160,A,3104.70791,N,12106.89483,E,38.11,113.60,250126,,,*19
$GPGGA,054118.160,3104.70791,N,12106.89483,E,3,12,0.50,6.30,M,,M,,*49
$GPRMC,054118.200,A,3104.70773,N,12106.89530,E,38.49,113.86,250126,,,*1C
$GPGGA,054118.200,3104.70773,N,12106.89530,E,3,12,0.50,6.30,M,,M,,*49
$GPRMC,054118.240,A,3104.70755,N,12106.89576,E,38.92,114.08,250126,,,*19
$GPGGA,054118.240,3104.70755,N,12106.89576,E,3,12,0.50,6.30,M,,M,,*4B
$GPRMC,054118.280,A,3104.70737,N,12106.89622,E,39.29,114.23,250126,,,*1B
$GPGGA,054118.280,3104.70737,N,12106.89622,E,3,12,0.50,6.30,M,,M,,*41
$GPRMC,054118.320,A,3104.70718,N,12106.89669,E,39.61,114.33,250126,,,*1F
$GPGGA,054118.320,3104.70718,N,12106.89669,E,3,12,0.50,6.30,M,,M,,*48
$GPRMC,054118.360,A,3104.70699,N,12106.89716,E,39.88,114.39,250126,,,*17
$GPGGA,054118.360,3104.70699,N,12106.89716,E,3,12,0.50,6.30,M,,M,,*4D
$GPRMC,054118.400,A,3104.70681,N,12106.89764,E,40.20,114.57,250126,,,*1E
$GPGGA,054118.400,3104.70681,N,12106.89764,E,3,12,0.50,6.30,M,,M,,*40
$GPRMC,054118.440,A,3104.70662,N,12106.89812,E,40.42,114.74,250126,,,*1C
$GPGGA,054118.440,3104.70662,N,12106.89812,E,3,12,0.50,6.40,M,,M,,*40
$GPRMC,054118.480,A,3104.70642,N,12106.89859,E,40.71,114.80,250126,,,*16
$GPGGA,054118.480,3104.70642,N,12106.89859,E,3,12,0.50,6.40,M,,M,,*41
$GPRMC,054118.520,A,3104.70623,N,12106.89908,E,40.92,114.71,250126,,,*1C
$GPGGA,054118.520,3104.70623,N,12106.89908,E,3,12,0.50,6.40,M,,M,,*48
$GPRMC,054118.560,A,3104.70604,N,12106.89956,E,41.20,114.69,250126,,,*17
$GPGGA,054118.560,3104.70604,N,12106.89956,E,3,12,0.50,6.40,M,,M,,*42
$GPRMC,054118.600,A,3104.70584,N,12106.90005,E,41.65,114.86,250126,,,*1E
$GPGGA,054118.600,3104.70584,N,12106.90005,E,3,12,0.50,6.40,M,,M,,*4B
$GPRMC,054118.640,A,3104.70564,N,12106.90055,E,41.95,114.78,250126,,,*1F
$GPGGA,054118.640,3104.70564,N,12106.90055,E,3,12,0.60,6.40,M,,M,,*47
$GPRMC,054118.680,A,3104.70545,N,12106.90104,E,42.13,114.92,250126,,,*1C
$GPGGA,054118.680,3104.70545,N,12106.90104,E,3,12,0.60,6.50,M,,M,,*4C
$GPRMC,054118.720,A,3104.70525,N,12106.90154,E,42.31,114.94,250126,,,*12
$GPGGA,054118.720,3104.70525,N,12106.90154,E,3,12,0.60,6.50,M,,M,,*44
$GPRMC,054118.800,A,3104.70485,N,12106.90255,E,42.96,114.55,250126,,,*16
$GPGGA,054118.800,3104.70485,N,12106.90255,E,3,12,0.50,6.50,M,,M,,*43
$GPRMC,054118.840,A,3104.70465,N,12106.90306,E,43.27,114.57,250126,,,*12
$GPGGA,054118.840,3104.70465,N,12106.90306,E,3,12,0.60,6.50,M,,M,,*4D
$GPRMC,054118.880,A,3104.70444,N,12106.90358,E,43.54,114.62,250126,,,*14
$GPGGA,054118.880,3104.70444,N,12106.90358,E,3,12,0.60,6.50,M,,M,,*49
$GPRMC,054118.920,A,3104.70424,N,12106.90409,E,43.76,114.62,250126,,,*1A
$GPGGA,054118.920,3104.70424,N,12106.90409,E,3,12,0.60,6.50,M,,M,,*47
$GPRMC,054118.960,A,3104.70404,N,12106.90461,E,43.93,114.53,250126,,,*1B
$GPGGA,054118.960,3104.70404,N,12106.90461,E,3,12,0.60,6.50,M,,M,,*4F
$GPRMC,054119.040,A,3104.70363,N,12106.90566,E,44.53,114.19,250126,,,*14
$GPGGA,054119.040,3104.70363,N,12106.90566,E,3,12,0.60,6.60,M,,M,,*46
$GPRMC,054119.080,A,3104.70342,N,12106.90619,E,44.87,114.09,250126,,,*18
$GPGGA,054119.080,3104.70342,N,12106.90619,E,3,12,0.60,6.60,M,,M,,*42
$GPRMC,054119.120,A,3104.70322,N,12106.90673,E,45.30,114.09,250126,,,*14
$GPGGA,054119.120,3104.70322,N,12106.90673,E,3,12,0.60,6.60,M,,M,,*43
$GPRMC,054119.200,A,3104.70281,N,12106.90782,E,45.72,113.93,250126,,,*10
$GPGGA,054119.200,3104.70281,N,12106.90782,E,3,12,0.50,6.60,M,,M,,*46
$GPRMC,054119.240,A,3104.70260,N,12106.90837,E,46.14,113.70,250126,,,*14
$GPGGA,054119.240,3104.70260,N,12106.90837,E,3,12,0.50,6.60,M,,M,,*4C
$GPRMC,054119.280,A,3104.70240,N,12106.90892,E,46.19,113.54,250126,,,*1E
$GPGGA,054119.280,3104.70240,N,12106.90892,E,3,12,0.50,6.60,M,,M,,*4D
$GPRMC,054119.320,A,3104.70219,N,12106.90947,E,46.33,113.50,250126,,,*1C
$GPGGA,054119.320,3104.70219,N,12106.90947,E,3,12,0.50,6.60,M,,M,,*43
$GPRMC,054119.360,A,3104.70198,N,12106.91002,E,46.51,113.45,250126,,,*1B
$GPGGA,054119.360,3104.70198,N,12106.91002,E,3,12,0.50,6.60,M,,M,,*44
$GPRMC,054119.400,A,3104.70177,N,12106.91058,E,46.67,113.33,250126,,,*10
$GPGGA,054119.400,3104.70177,N,12106.91058,E,3,12,0.50,6.60,M,,M,,*4B
$GPRMC,054119.440,A,3104.70157,N,12106.91114,E,47.11,113.20,250126,,,*1D
$GPGGA,054119.440,3104.70157,N,12106.91114,E,3,12,0.50,6.60,M,,M,,*44
$GPRMC,054119.480,A,3104.70136,N,12106.91171,E,47.28,113.24,250126,,,*1B
$GPGGA,054119.480,3104.70136,N,12106.91171,E,3,12,0.50,6.60,M,,M,,*4C
$GPRMC,054119.520,A,3104.70115,N,12106.91227,E,47.55,113.35,250126,,,*1B
$GPGGA,054119.520,3104.70115,N,12106.91227,E,3,12,0.50,6.60,M,,M,,*46
$GPRMC,054119.600,A,3104.70074,N,12106.91342,E,47.86,112.91,250126,,,*1F
$GPGGA,054119.600,3104.70074,N,12106.91342,E,3,12,0.60,6.60,M,,M,,*40
$GPRMC,054119.640,A,3104.70053,N,12106.91399,E,47.97,112.68,250126,,,*1E
$GPGGA,054119.640,3104.70053,N,12106.91399,E,3,12,0.50,6.60,M,,M,,*44
$GPRMC,054119.680,A,3104.70033,N,12106.91457,E,48.25,112.56,250126,,,*1A
$GPGGA,054119.680,3104.70033,N,12106.91457,E,3,12,0.50,6.60,M,,M,,*4B
$GPRMC,054119.720,A,3104.70012,N,12106.91515,E,48.49,112.63,250126,,,*19
$GPGGA,054119.720,3104.70012,N,12106.91515,E,3,12,0.50,6.60,M,,M,,*44
$GPRMC,054119.800,A,3104.69970,N,12106.91631,E,48.82,112.45,250126,,,*17
$GPGGA,054119.800,3104.69970,N,12106.91631,E,3,12,0.50,6.60,M,,M,,*49
$GPRMC,054119.840,A,3104.69950,N,12106.91690,E,48.96,112.38,250126,,,*15
$GPGGA,054119.840,3104.69950,N,12106.91690,E,3,12,0.50,6.60,M,,M,,*44
$GPRMC,054119.880,A,3104.69929,N,12106.91749,E,49.19,112.42,250126,,,*19
$GPGGA,054119.880,3104.69929,N,12106.91749,E,3,12,0.50,6.60,M,,M,,*43
$GPRMC,054119.920,A,3104.69908,N,12106.91808,E,49.12,112.54,250126,,,*17
$GPGGA,054119.920,3104.69908,N,12106.91808,E,3,12,0.50,6.70,M,,M,,*40
$GPRMC,054119.960,A,3104.69887,N,12106.91867,E,49.27,112.58,250126,,,*16
$GPGGA,054119.960,3104.69887,N,12106.91867,E,3,12,0.50,6.70,M,,M,,*4B
$GPRMC,054120.040,A,3104.69845,N,12106.91985,E,49.71,112.59,250126,,,*16
$GPGGA,054120.040,3104.69845,N,12106.91985,E,3,12,0.50,6.70,M,,M,,*49
$GPRMC,054120.080,A,3104.69823,N,12106.92045,E,50.09,112.65,250126,,,*14
$GPGGA,054120.080,3104.69823,N,12106.92045,E,3,12,0.50,6.70,M,,M,,*43
$GPRMC,054120.160,A,3104.69780,N,12106.92165,E,50.23,112.83,250126,,,*1E
$GPGGA,054120.160,3104.69780,N,12106.92165,E,3,12,0.50,6.70,M,,M,,*49
$GPRMC,054120.200,A,3104.69759,N,12106.92224,E,50.22,112.74,250126,,,*10
$GPGGA,054120.200,3104.69759,N,12106.92224,E,3,12,0.50,6.70,M,,M,,*4E
$GPRMC,054120.280,A,3104.69716,N,12106.92344,E,50.22,112.55,250126,,,*17
$GPGGA,054120.280,3104.69716,N,12106.92344,E,3,12,0.50,6.70,M,,M,,*4A
$GPRMC,054120.320,A,3104.69694,N,12106.92404,E,50.41,112.60,250126,,,*17
$GPGGA,054120.320,3104.69694,N,12106.92404,E,3,12,0.50,6.70,M,,M,,*49
$GPRMC,054120.360,A,3104.69672,N,12106.92464,E,50.62,112.89,250126,,,*1B
$GPGGA,054120.360,3104.69672,N,12106.92464,E,3,12,0.50,6.80,M,,M,,*4C
$GPRMC,054120.400,A,3104.69650,N,12106.92525,E,50.71,113.11,250126,,,*1C
$GPGGA,054120.400,3104.69650,N,12106.92525,E,3,12,0.50,6.80,M,,M,,*49
$GPRMC,054120.440,A,3104.69628,N,12106.92585,E,50.78,112.85,250126,,,*18
$GPGGA,054120.440,3104.69628,N,12106.92585,E,3,12,0.50,6.80,M,,M,,*48
$GPRMC,054120.480,A,3104.69606,N,12106.92645,E,50.57,113.01,250126,,,*17
$GPGGA,054120.480,3104.69606,N,12106.92645,E,3,12,0.50,6.80,M,,M,,*47
$GPRMC,054120.520,A,3104.69584,N,12106.92705,E,50.46,113.38,250126,,,*1A
$GPGGA,054120.520,3104.69584,N,12106.92705,E,3,12,0.50,6.80,M,,M,,*40
$GPRMC,054120.560,A,3104.69562,N,12106.92765,E,50.45,113.35,250126,,,*1E
$GPGGA,054120.560,3104.69562,N,12106.92765,E,3,12,0.50,6.70,M,,M,,*45
$GPRMC,054120.600,A,3104.69540,N,12106.92824,E,50.36,113.27,250126,,,*16
$GPGGA,054120.600,3104.69540,N,12106.92824,E,3,12,0.50,6.70,M,,M,,*4A
$GPRMC,054120.640,A,3104.69518,N,12106.92884,E,50.23,113.10,250126,,,*15
$GPGGA,054120.640,3104.69518,N,12106.92884,E,3,12,0.50,6.70,M,,M,,*49
$GPRMC,054120.680,A,3104.69496,N,12106.92944,E,50.22,113.21,250126,,,*10
$GPGGA,054120.680,3104.69496,N,12106.92944,E,3,12,0.50,6.80,M,,M,,*40
$GPRMC,054120.720,A,3104.69474,N,12106.93003,E,50.27,113.35,250126,,,*1C
$GPGGA,054120.720,3104.69474,N,12106.93003,E,3,12,0.50,6.80,M,,M,,*4C
$GPRMC,054120.760,A,3104.69451,N,12106.93062,E,50.09,113.48,250126,,,*1E
$GPGGA,054120.760,3104.69451,N,12106.93062,E,3,12,0.50,6.80,M,,M,,*48
$GPRMC,054120.800,A,3104.69430,N,12106.93122,E,50.01,113.47,250126,,,*12
$GPGGA,054120.800,3104.69430,N,12106.93122,E,3,12,0.50,6.80,M,,M,,*43
$GPRMC,054120.840,A,3104.69408,N,12106.93181,E,50.02,113.45,250126,,,*15
$GPGGA,054120.840,3104.69408,N,12106.93181,E,3,12,0.50,6.70,M,,M,,*4A
$GPRMC,054120.880,A,3104.69385,N,12106.93240,E,50.07,113.67,250126,,,*10
$GPGGA,054120.880,3104.69385,N,12106.93240,E,3,12,0.50,6.70,M,,M,,*4A
$GPRMC,054120.920,A,3104.69363,N,12106.93299,E,49.99,113.78,250126,,,*16
$GPGGA,054120.920,3104.69363,N,12106.93299,E,3,12,0.50,6.70,M,,M,,*4D
$GPRMC,054120.960,A,3104.69340,N,12106.93358,E,49.94,113.84,250126,,,*11
$GPGGA,054120.960,3104.69340,N,12106.93358,E,3,12,0.50,6.70,M,,M,,*44
$GPRMC,054121.040,A,3104.69296,N,12106.93475,E,49.39,113.85,250126,,,*1F
$GPGGA,054121.040,3104.69296,N,12106.93475,E,3,12,0.50,6.70,M,,M,,*4C
$GPRMC,054121.080,A,3104.69274,N,12106.93532,E,48.95,114.07,250126,,,*17
$GPGGA,054121.080,3104.69274,N,12106.93532,E,3,12,0.50,6.70,M,,M,,*4E
$GPRMC,054121.160,A,3104.69230,N,12106.93646,E,48.25,114.28,250126,,,*1E
$GPGGA,054121.160,3104.69230,N,12106.93646,E,3,12,0.50,6.70,M,,M,,*41
$GPRMC,054121.200,A,3104.69208,N,12106.93702,E,47.80,114.49,250126,,,*16
$GPGGA,054121.200,3104.69208,N,12106.93702,E,3,12,0.50,6.70,M,,M,,*4E
$GPRMC,054121.240,A,3104.69186,N,12106.93757,E,47.28,114.60,250126,,,*1E
$GPGGA,054121.240,3104.69186,N,12106.93757,E,3,12,0.50,6.70,M,,M,,*4F
$GPRMC,054121.280,A,3104.69165,N,12106.93811,E,46.63,114.93,250126,,,*10
$GPGGA,054121.280,3104.69165,N,12106.93811,E,3,12,0.50,6.70,M,,M,,*43
$GPRMC,054121.320,A,3104.69143,N,12106.93865,E,45.90,114.96,250126,,,*16
$GPGGA,054121.320,3104.69143,N,12106.93865,E,3,12,0.50,6.70,M,,M,,*4F
$GPRMC,054121.360,A,3104.69121,N,12106.93917,E,45.42,115.19,250126,,,*1B
$GPGGA,054121.360,3104.69121,N,12106.93917,E,3,12,0.50,6.70,M,,M,,*4B
$GPRMC,054121.400,A,3104.69100,N,12106.93970,E,45.05,115.44,250126,,,*13
$GPGGA,054121.400,3104.69100,N,12106.93970,E,3,12,0.50,6.70,M,,M,,*48
$GPRMC,054121.440,A,3104.69078,N,12106.94021,E,44.45,116.11,250126,,,*15
$GPGGA,054121.440,3104.69078,N,12106.94021,E,3,12,0.50,6.70,M,,M,,*48
$GPRMC,054121.480,A,3104.69057,N,12106.94071,E,43.89,116.51,250126,,,*12
$GPGGA,054121.480,3104.69057,N,12106.94071,E,3,12,0.50,6.70,M,,M,,*4C
$GPRMC,054121.520,A,3104.69036,N,12106.94120,E,43.19,116.71,250126,,,*10
$GPGGA,054121.520,3104.69036,N,12106.94120,E,3,12,0.50,6.70,M,,M,,*45
$GPRMC,054121.560,A,3104.69014,N,12106.94169,E,42.53,116.93,250126,,,*1A
$GPGGA,054121.560,3104.69014,N,12106.94169,E,3,12,0.50,6.70,M,,M,,*4C
$GPRMC,054121.600,A,3104.68993,N,12106.94216,E,41.79,117.33,250126,,,*13
$GPGGA,054121.600,3104.68993,N,12106.94216,E,3,12,0.50,6.70,M,,M,,*45
$GPRMC,054121.640,A,3104.68972,N,12106.94262,E,41.16,117.68,250126,,,*1C
$GPGGA,054121.640,3104.68972,N,12106.94262,E,3,12,0.50,6.70,M,,M,,*4D
$GPRMC,054121.680,A,3104.68950,N,12106.94309,E,40.62,118.22,250126,,,*1F
$GPGGA,054121.680,3104.68950,N,12106.94309,E,3,12,0.50,6.60,M,,M,,*4C
$GPRMC,054121.720,A,3104.68929,N,12106.94353,E,39.97,118.95,250126,,,*1D
$GPGGA,054121.720,3104.68929,N,12106.94353,E,3,12,0.50,6.60,M,,M,,*46
$GPRMC,054121.760,A,3104.68907,N,12106.94396,E,39.32,119.83,250126,,,*15
$GPGGA,054121.760,3104.68907,N,12106.94396,E,3,12,0.50,6.60,M,,M,,*47
$GPRMC,054121.800,A,3104.68886,N,12106.94439,E,38.72,120.31,250126,,,*10
$GPGGA,054121.800,3104.68886,N,12106.94439,E,3,12,0.50,6.60,M,,M,,*44
$GPRMC,054121.840,A,3104.68863,N,12106.94480,E,38.16,121.14,250126,,,*19
$GPGGA,054121.840,3104.68863,N,12106.94480,E,3,12,0.50,6.60,M,,M,,*49
$GPRMC,054121.880,A,3104.68841,N,12106.94521,E,37.72,121.76,250126,,,*16
$GPGGA,054121.880,3104.68841,N,12106.94521,E,3,12,0.50,6.60,M,,M,,*4F
$GPRMC,054121.920,A,3104.68819,N,12106.94561,E,37.32,122.28,250126,,,*18
$GPGGA,054121.920,3104.68819,N,12106.94561,E,3,12,0.50,6.60,M,,M,,*4D
$GPRMC,054121.960,A,3104.68796,N,12106.94601,E,36.91,123.10,250126,,,*13
$GPGGA,054121.960,3104.68796,N,12106.94601,E,3,12,0.50,6.60,M,,M,,*44
$GPRMC,054122.040,A,3104.68751,N,12106.94678,E,36.06,125.02,250126,,,*15
$GPGGA,054122.040,3104.68751,N,12106.94678,E,3,12,0.50,6.60,M,,M,,*49
$GPRMC,054122.080,A,3104.68727,N,12106.94714,E,35.72,125.99,250126,,,*11
$GPGGA,054122.080,3104.68727,N,12106.94714,E,3,12,0.50,6.50,M,,M,,*4C
$GPRMC,054122.160,A,3104.68679,N,12106.94785,E,34.76,128.29,250126,,,*1F
$GPGGA,054122.160,3104.68679,N,12106.94785,E,3,12,0.50,6.50,M,,M,,*41
$GPRMC,054122.240,A,3104.68629,N,12106.94852,E,34.62,130.50,250126,,,*1C
$GPGGA,054122.240,3104.68629,N,12106.94852,E,3,12,0.50,6.50,M,,M,,*40
$GPRMC,054122.280,A,3104.68603,N,12106.94886,E,34.72,131.20,250126,,,*16
$GPGGA,054122.280,3104.68603,N,12106.94886,E,3,12,0.50,6.50,M,,M,,*4D
$GPRMC,054122.320,A,3104.68577,N,12106.94919,E,34.68,132.37,250126,,,*14
$GPGGA,054122.320,3104.68577,N,12106.94919,E,3,12,0.50,6.50,M,,M,,*41
$GPRMC,054122.360,A,3104.68550,N,12106.94951,E,34.48,133.65,250126,,,*1D
$GPGGA,054122.360,3104.68550,N,12106.94951,E,3,12,0.50,6.50,M,,M,,*4C
$GPRMC,054122.400,A,3104.68523,N,12106.94982,E,34.40,134.93,250126,,,*10
$GPGGA,054122.400,3104.68523,N,12106.94982,E,3,12,0.50,6.40,M,,M,,*46
$GPRMC,054122.440,A,3104.68495,N,12106.95012,E,34.38,136.08,250126,,,*16
$GPGGA,054122.440,3104.68495,N,12106.95012,E,3,12,0.50,6.40,M,,M,,*4F
$GPRMC,054122.480,A,3104.68467,N,12106.95041,E,34.14,137.15,250126,,,*12
$GPGGA,054122.480,3104.68467,N,12106.95041,E,3,12,0.50,6.40,M,,M,,*48
$GPRMC,054122.520,A,3104.68439,N,12106.95071,E,34.16,138.18,250126,,,*11
$GPGGA,054122.520,3104.68439,N,12106.95071,E,3,12,0.50,6.40,M,,M,,*4B
$GPRMC,054122.560,A,3104.68409,N,12106.95099,E,34.19,139.46,250126,,,*15
$GPGGA,054122.560,3104.68409,N,12106.95099,E,3,12,0.50,6.40,M,,M,,*4A
$GPRMC,054122.600,A,3104.68379,N,12106.95127,E,34.40,140.41,250126,,,*11
$GPGGA,054122.600,3104.68379,N,12106.95127,E,3,12,0.50,6.40,M,,M,,*4B
$GPRMC,054122.640,A,3104.68349,N,12106.95155,E,34.66,141.46,250126,,,*11
$GPGGA,054122.640,3104.68349,N,12106.95155,E,3,12,0.50,6.40,M,,M,,*49
$GPRMC,054122.720,A,3104.68286,N,12106.95207,E,34.74,144.00,250126,,,*14
$GPGGA,054122.720,3104.68286,N,12106.95207,E,3,12,0.50,6.30,M,,M,,*4F
$GPRMC,054122.760,A,3104.68254,N,12106.95232,E,34.93,145.44,250126,,,*11
$GPGGA,054122.760,3104.68254,N,12106.95232,E,3,12,0.50,6.30,M,,M,,*42
$GPRMC,054122.800,A,3104.68221,N,12106.95257,E,35.16,146.80,250126,,,*1E
$GPGGA,054122.800,3104.68221,N,12106.95257,E,3,12,0.50,6.30,M,,M,,*4A
$GPRMC,054122.840,A,3104.68188,N,12106.95281,E,35.28,147.58,250126,,,*18
$GPGGA,054122.840,3104.68188,N,12106.95281,E,3,12,0.50,6.30,M,,M,,*45
$GPRMC,054122.880,A,3104.68154,N,12106.95305,E,35.28,148.12,250126,,,*19
$GPGGA,054122.880,3104.68154,N,12106.95305,E,3,12,0.50,6.20,M,,M,,*44
$GPRMC,054122.920,A,3104.68121,N,12106.95328,E,35.45,149.03,250126,,,*15
$GPGGA,054122.920,3104.68121,N,12106.95328,E,3,12,0.50,6.20,M,,M,,*42
$GPRMC,054122.960,A,3104.68086,N,12106.95350,E,35.49,150.37,250126,,,*11
$GPGGA,054122.960,3104.68086,N,12106.95350,E,3,12,0.50,6.20,M,,M,,*45
$GPRMC,054123.040,A,3104.68016,N,12106.95393,E,35.70,152.69,250126,,,*1E
$GPGGA,054123.040,3104.68016,N,12106.95393,E,3,12,0.50,6.20,M,,M,,*49
$GPRMC,054123.080,A,3104.67980,N,12106.95414,E,35.96,153.17,250126,,,*13
$GPGGA,054123.080,3104.67980,N,12106.95414,E,3,12,0.50,6.20,M,,M,,*44
$GPRMC,054123.160,A,3104.67906,N,12106.95454,E,36.27,154.69,250126,,,*11
$GPGGA,054123.160,3104.67906,N,12106.95454,E,3,12,0.50,6.10,M,,M,,*42
$GPRMC,054123.200,A,3104.67869,N,12106.95473,E,36.46,155.75,250126,,,*12
$GPGGA,054123.200,3104.67869,N,12106.95473,E,3,12,0.50,6.10,M,,M,,*4A
$GPRMC,054123.240,A,3104.67832,N,12106.95491,E,36.53,156.93,250126,,,*1B
$GPGGA,054123.240,3104.67832,N,12106.95491,E,3,12,0.50,6.10,M,,M,,*4C
$GPRMC,054123.280,A,3104.67794,N,12106.95509,E,36.67,157.86,250126,,,*16
$GPGGA,054123.280,3104.67794,N,12106.95509,E,3,12,0.50,6.10,M,,M,,*43
$GPRMC,054123.320,A,3104.67756,N,12106.95525,E,36.90,159.06,250126,,,*13
$GPGGA,054123.320,3104.67756,N,12106.95525,E,3,12,0.50,6.10,M,,M,,*48
$GPRMC,054123.360,A,3104.67717,N,12106.95541,E,36.95,159.93,250126,,,*19
$GPGGA,054123.360,3104.67717,N,12106.95541,E,3,12,0.50,6.00,M,,M,,*4A
$GPRMC,054123.400,A,3104.67678,N,12106.95556,E,36.97,160.93,250126,,,*1E
$GPGGA,054123.400,3104.67678,N,12106.95556,E,3,12,0.50,6.00,M,,M,,*45
$GPRMC,054123.440,A,3104.67639,N,12106.95570,E,36.83,161.98,250126,,,*14
$GPGGA,054123.440,3104.67639,N,12106.95570,E,3,12,0.50,6.00,M,,M,,*40
$GPRMC,054123.480,A,3104.67600,N,12106.95584,E,36.84,163.23,250126,,,*1C
$GPGGA,054123.480,3104.67600,N,12106.95584,E,3,12,0.50,6.00,M,,M,,*4D
$GPRMC,054123.520,A,3104.67560,N,12106.95596,E,36.93,164.46,250126,,,*13
$GPGGA,054123.520,3104.67560,N,12106.95596,E,3,12,0.50,6.00,M,,M,,*40
$GPRMC,054123.560,A,3104.67520,N,12106.95607,E,37.13,165.64,250126,,,*10
$GPGGA,054123.560,3104.67520,N,12106.95607,E,3,12,0.50,6.00,M,,M,,*4B
$GPRMC,054123.600,A,3104.67479,N,12106.95618,E,37.50,166.62,250126,,,*14
$GPGGA,054123.600,3104.67479,N,12106.95618,E,3,12,0.50,6.00,M,,M,,*4D
$GPRMC,054123.640,A,3104.67438,N,12106.95628,E,37.77,167.44,250126,,,*16
$GPGGA,054123.640,3104.67438,N,12106.95628,E,3,12,0.50,5.90,M,,M,,*45
$GPRMC,054123.680,A,3104.67397,N,12106.95638,E,37.80,167.98,250126,,,*10
$GPGGA,054123.680,3104.67397,N,12106.95638,E,3,12,0.50,5.90,M,,M,,*4A
$GPRMC,054123.720,A,3104.67356,N,12106.95647,E,37.80,168.99,250126,,,*10
$GPGGA,054123.720,3104.67356,N,12106.95647,E,3,12,0.50,5.90,M,,M,,*44
$GPRMC,054123.760,A,3104.67314,N,12106.95654,E,37.63,170.26,250126,,,*10
$GPGGA,054123.760,3104.67314,N,12106.95654,E,3,12,0.50,5.90,M,,M,,*44
$GPRMC,054123.800,A,3104.67273,N,12106.95661,E,37.72,171.62,250126,,,*1E
$GPGGA,054123.800,3104.67273,N,12106.95661,E,3,12,0.50,5.90,M,,M,,*4B
$GPRMC,054123.840,A,3104.67231,N,12106.95667,E,37.86,172.44,250126,,,*16
$GPGGA,054123.840,3104.67231,N,12106.95667,E,3,12,0.50,5.90,M,,M,,*4F
$GPRMC,054123.880,A,3104.67189,N,12106.95672,E,38.08,173.54,250126,,,*17
$GPGGA,054123.880,3104.67189,N,12106.95672,E,3,12,0.50,5.90,M,,M,,*47
$GPRMC,054123.920,A,3104.67146,N,12106.95676,E,38.18,174.44,250126,,,*1C
$GPGGA,054123.920,3104.67146,N,12106.95676,E,3,12,0.50,5.90,M,,M,,*4B
$GPRMC,054123.960,A,3104.67104,N,12106.95680,E,38.08,175.49,250126,,,*1A
$GPGGA,054123.960,3104.67104,N,12106.95680,E,3,12,0.50,5.90,M,,M,,*40
$GPRMC,054124.040,A,3104.67019,N,12106.95684,E,38.15,177.91,250126,,,*14
$GPGGA,054124.040,3104.67019,N,12106.95684,E,3,12,0.50,5.80,M,,M,,*44
$GPRMC,054124.080,A,3104.66976,N,12106.95684,E,38.22,179.07,250126,,,*1C
$GPGGA,054124.080,3104.66976,N,12106.95684,E,3,12,0.50,5.80,M,,M,,*49
$GPRMC,054124.160,A,3104.66891,N,12106.95682,E,38.53,180.68,250126,,,*14
$GPGGA,054124.160,3104.66891,N,12106.95682,E,3,12,0.50,5.90,M,,M,,*49
$GPRMC,054124.200,A,3104.66848,N,12106.95680,E,38.64,181.70,250126,,,*1B
$GPGGA,054124.200,3104.66848,N,12106.95680,E,3,12,0.50,5.80,M,,M,,*4B
$GPRMC,054124.240,A,3104.66805,N,12106.95677,E,38.50,183.00,250126,,,*1C
$GPGGA,054124.240,3104.66805,N,12106.95677,E,3,12,0.50,5.80,M,,M,,*4E
$GPRMC,054124.280,A,3104.66762,N,12106.95672,E,38.68,184.02,250126,,,*15
$GPGGA,054124.280,3104.66762,N,12106.95672,E,3,12,0.50,5.80,M,,M,,*49
$GPRMC,054124.320,A,3104.66720,N,12106.95667,E,38.60,185.09,250126,,,*1E
$GPGGA,054124.320,3104.66720,N,12106.95667,E,3,12,0.50,5.80,M,,M,,*40
$GPRMC,054124.360,A,3104.66678,N,12106.95661,E,38.48,186.07,250126,,,*17
$GPGGA,054124.360,3104.66678,N,12106.95661,E,3,12,0.50,5.80,M,,M,,*4E
$GPRMC,054124.400,A,3104.66635,N,12106.95654,E,38.39,187.02,250126,,,*1B
$GPGGA,054124.400,3104.66635,N,12106.95654,E,3,12,0.50,5.80,M,,M,,*40
$GPRMC,054124.440,A,3104.66593,N,12106.95647,E,38.34,188.06,250126,,,*14
$GPGGA,054124.440,3104.66593,N,12106.95647,E,3,12,0.50,5.80,M,,M,,*49
$GPRMC,054124.480,A,3104.66551,N,12106.95638,E,38.35,189.36,250126,,,*1D
$GPGGA,054124.480,3104.66551,N,12106.95638,E,3,12,0.50,5.80,M,,M,,*43
$GPRMC,054124.520,A,3104.66509,N,12106.95628,E,38.34,190.50,250126,,,*13
$GPGGA,054124.520,3104.66509,N,12106.95628,E,3,12,0.50,5.80,M,,M,,*44
$GPRMC,054124.560,A,3104.66468,N,12106.95618,E,38.48,191.50,250126,,,*18
$GPGGA,054124.560,3104.66468,N,12106.95618,E,3,12,0.50,5.80,M,,M,,*45
$GPRMC,054124.600,A,3104.66426,N,12106.95606,E,38.65,192.49,250126,,,*1C
$GPGGA,054124.600,3104.66426,N,12106.95606,E,3,12,0.50,5.80,M,,M,,*45
$GPRMC,054124.640,A,3104.66384,N,12106.95593,E,38.74,193.71,250126,,,*12
$GPGGA,054124.640,3104.66384,N,12106.95593,E,3,12,0.50,5.80,M,,M,,*41
$GPRMC,054124.720,A,3104.66301,N,12106.95565,E,38.32,196.10,250126,,,*11
$GPGGA,054124.720,3104.66301,N,12106.95565,E,3,12,0.50,5.80,M,,M,,*42
$GPRMC,054124.760,A,3104.66261,N,12106.95550,E,38.08,197.19,250126,,,*15
$GPGGA,054124.760,3104.66261,N,12106.95550,E,3,12,0.50,5.80,M,,M,,*47
$GPRMC,054124.800,A,3104.66222,N,12106.95533,E,37.96,198.68,250126,,,*1F
$GPGGA,054124.800,3104.66222,N,12106.95533,E,3,12,0.50,5.80,M,,M,,*4C
$GPRMC,054124.840,A,3104.66181,N,12106.95516,E,38.08,199.62,250126,,,*15
$GPGGA,054124.840,3104.66181,N,12106.95516,E,3,12,0.50,5.80,M,,M,,*45
$GPRMC,054124.880,A,3104.66142,N,12106.95498,E,38.00,200.87,250126,,,*11
$GPGGA,054124.880,3104.66142,N,12106.95498,E,3,12,0.50,5.80,M,,M,,*41
$GPRMC,054124.920,A,3104.66104,N,12106.95479,E,37.81,202.03,250126,,,*1F
$GPGGA,054124.920,3104.66104,N,12106.95479,E,3,12,0.50,5.70,M,,M,,*48
$GPRMC,054124.960,A,3104.66066,N,12106.95459,E,37.87,203.05,250126,,,*1D
$GPGGA,054124.960,3104.66066,N,12106.95459,E,3,12,0.50,5.70,M,,M,,*4B
$GPRMC,054125.040,A,3104.65991,N,12106.95416,E,37.50,206.42,250126,,,*12
$GPGGA,054125.040,3104.65991,N,12106.95416,E,3,12,0.50,5.70,M,,M,,*48
$GPRMC,054125.080,A,3104.65955,N,12106.95391,E,37.31,208.04,250126,,,*15
$GPGGA,054125.080,3104.65955,N,12106.95391,E,3,12,0.50,5.70,M,,M,,*44
$GPRMC,054125.160,A,3104.65884,N,12106.95342,E,36.97,210.49,250126,,,*14
$GPGGA,054125.160,3104.65884,N,12106.95342,E,3,12,0.50,5.70,M,,M,,*48
$GPRMC,054125.200,A,3104.65850,N,12106.95316,E,36.86,211.56,250126,,,*16
$GPGGA,054125.200,3104.65850,N,12106.95316,E,3,12,0.50,5.70,M,,M,,*45
$GPRMC,054125.240,A,3104.65816,N,12106.95289,E,36.94,212.70,250126,,,*13
$GPGGA,054125.240,3104.65816,N,12106.95289,E,3,12,0.50,5.70,M,,M,,*44
$GPRMC,054125.280,A,3104.65782,N,12106.95261,E,37.05,213.76,250126,,,*15
$GPGGA,054125.280,3104.65782,N,12106.95261,E,3,12,0.50,5.70,M,,M,,*4C
$GPRMC,054125.320,A,3104.65748,N,12106.95234,E,36.94,214.57,250126,,,*15
$GPGGA,054125.320,3104.65748,N,12106.95234,E,3,12,0.50,5.70,M,,M,,*41
$GPRMC,054125.360,A,3104.65715,N,12106.95206,E,36.87,215.48,250126,,,*15
$GPGGA,054125.360,3104.65715,N,12106.95206,E,3,12,0.50,5.70,M,,M,,*4C
$GPRMC,054125.400,A,3104.65683,N,12106.95177,E,36.84,216.33,250126,,,*13
$GPGGA,054125.400,3104.65683,N,12106.95177,E,3,12,0.50,5.60,M,,M,,*47
$GPRMC,054125.480,A,3104.65618,N,12106.95117,E,36.90,218.08,250126,,,*1C
$GPGGA,054125.480,3104.65618,N,12106.95117,E,3,12,0.50,5.60,M,,M,,*4B
$GPRMC,054125.520,A,3104.65586,N,12106.95087,E,36.91,218.58,250126,,,*1F
$GPGGA,054125.520,3104.65586,N,12106.95087,E,3,12,0.50,5.60,M,,M,,*4C
$GPRMC,054125.560,A,3104.65554,N,12106.95057,E,36.72,218.69,250126,,,*16
$GPGGA,054125.560,3104.65554,N,12106.95057,E,3,12,0.50,5.60,M,,M,,*4A
$GPRMC,054125.600,A,3104.65523,N,12106.95027,E,36.65,218.83,250126,,,*16
$GPGGA,054125.600,3104.65523,N,12106.95027,E,3,12,0.50,5.60,M,,M,,*48
$GPRMC,054125.680,A,3104.65460,N,12106.94966,E,36.94,219.70,250126,,,*16
$GPGGA,054125.680,3104.65460,N,12106.94966,E,3,12,0.50,5.60,M,,M,,*4B
$GPRMC,054125.720,A,3104.65428,N,12106.94934,E,37.07,220.10,250126,,,*11
$GPGGA,054125.720,3104.65428,N,12106.94934,E,3,12,0.50,5.60,M,,M,,*4B
$GPRMC,054125.760,A,3104.65397,N,12106.94902,E,37.27,220.50,250126,,,*15
$GPGGA,054125.760,3104.65397,N,12106.94902,E,3,12,0.50,5.60,M,,M,,*49
$GPRMC,054125.800,A,3104.65365,N,12106.94870,E,37.34,220.64,250126,,,*10
$GPGGA,054125.800,3104.65365,N,12106.94870,E,3,12,0.50,5.60,M,,M,,*49
$GPRMC,054125.840,A,3104.65334,N,12106.94838,E,37.43,220.89,250126,,,*1F
$GPGGA,054125.840,3104.65334,N,12106.94838,E,3,12,0.50,5.60,M,,M,,*45
$GPRMC,054125.880,A,3104.65302,N,12106.94806,E,37.44,221.18,250126,,,*15
$GPGGA,054125.880,3104.65302,N,12106.94806,E,3,12,0.50,5.60,M,,M,,*41
$GPRMC,054125.920,A,3104.65271,N,12106.94774,E,37.57,221.25,250126,,,*1D
$GPGGA,054125.920,3104.65271,N,12106.94774,E,3,12,0.50,5.60,M,,M,,*45
$GPRMC,054125.960,A,3104.65239,N,12106.94741,E,37.82,221.49,250126,,,*11
$GPGGA,054125.960,3104.65239,N,12106.94741,E,3,12,0.50,5.60,M,,M,,*4B
$GPRMC,054126.040,A,3104.65176,N,12106.94675,E,38.26,221.67,250126,,,*1A
$GPGGA,054126.040,3104.65176,N,12106.94675,E,3,12,0.50,5.60,M,,M,,*4D
$GPRMC,054126.080,A,3104.65143,N,12106.94642,E,38.28,221.56,250126,,,*18
$GPGGA,054126.080,3104.65143,N,12106.94642,E,3,12,0.50,5.60,M,,M,,*43
$GPRMC,054126.120,A,3104.65112,N,12106.94610,E,38.33,221.41,250126,,,*1C
$GPGGA,054126.120,3104.65112,N,12106.94610,E,3,12,0.50,5.60,M,,M,,*4B
$GPRMC,054126.160,A,3104.65079,N,12106.94577,E,38.29,220.93,250126,,,*13
$GPGGA,054126.160,3104.65079,N,12106.94577,E,3,12,0.50,5.60,M,,M,,*41
$GPRMC,054126.200,A,3104.65046,N,12106.94545,E,38.53,220.62,250126,,,*18
$GPGGA,054126.200,3104.65046,N,12106.94545,E,3,12,0.50,5.60,M,,M,,*49
$GPRMC,054126.240,A,3104.65013,N,12106.94513,E,38.69,220.48,250126,,,*1E
$GPGGA,054126.240,3104.65013,N,12106.94513,E,3,12,0.50,5.60,M,,M,,*4E
$GPRMC,054126.280,A,3104.64980,N,12106.94481,E,38.82,220.05,250126,,,*16
$GPGGA,054126.280,3104.64980,N,12106.94481,E,3,12,0.50,5.60,M,,M,,*4A
$GPRMC,054126.320,A,3104.64947,N,12106.94449,E,38.86,219.62,250126,,,*1D
$GPGGA,054126.320,3104.64947,N,12106.94449,E,3,12,0.50,5.60,M,,M,,*4E
$GPRMC,054126.360,A,3104.64913,N,12106.94417,E,38.85,219.28,250126,,,*1E
$GPGGA,054126.360,3104.64913,N,12106.94417,E,3,12,0.50,5.60,M,,M,,*40
$GPRMC,054126.400,A,3104.64879,N,12106.94386,E,38.99,218.79,250126,,,*15
$GPGGA,054126.400,3104.64879,N,12106.94386,E,3,12,0.50,5.60,M,,M,,*43
$GPRMC,054126.440,A,3104.64844,N,12106.94355,E,39.22,218.01,250126,,,*1F
$GPGGA,054126.440,3104.64844,N,12106.94355,E,3,12,0.50,5.60,M,,M,,*47
$GPRMC,054126.480,A,3104.64809,N,12106.94324,E,39.25,217.69,250126,,,*1A
$GPGGA,054126.480,3104.64809,N,12106.94324,E,3,12,0.50,5.60,M,,M,,*44
$GPRMC,054126.520,A,3104.64774,N,12106.94294,E,39.26,217.12,250126,,,*11
$GPGGA,054126.520,3104.64774,N,12106.94294,E,3,12,0.50,5.60,M,,M,,*40
$GPRMC,054126.560,A,3104.64738,N,12106.94264,E,39.35,216.26,250126,,,*16
$GPGGA,054126.560,3104.64738,N,12106.94264,E,3,12,0.50,5.60,M,,M,,*43
$GPRMC,054126.600,A,3104.64702,N,12106.94235,E,39.37,215.53,250126,,,*1D
$GPGGA,054126.600,3104.64702,N,12106.94235,E,3,12,0.50,5.60,M,,M,,*4B
$GPRMC,054126.640,A,3104.64666,N,12106.94207,E,39.33,214.95,250126,,,*14
$GPGGA,054126.640,3104.64666,N,12106.94207,E,3,12,0.50,5.50,M,,M,,*4E
$GPRMC,054126.680,A,3104.64630,N,12106.94178,E,39.35,214.52,250126,,,*1D
$GPGGA,054126.680,3104.64630,N,12106.94178,E,3,12,0.50,5.50,M,,M,,*4A
$GPRMC,054126.720,A,3104.64594,N,12106.94150,E,39.20,214.04,250126,,,*16
$GPGGA,054126.720,3104.64594,N,12106.94150,E,3,12,0.50,5.50,M,,M,,*46
$GPRMC,054126.760,A,3104.64557,N,12106.94123,E,38.94,213.30,250126,,,*17
$GPGGA,054126.760,3104.64557,N,12106.94123,E,3,12,0.50,5.50,M,,M,,*49
$GPRMC,054126.800,A,3104.64521,N,12106.94097,E,38.90,212.72,250126,,,*12
$GPGGA,054126.800,3104.64521,N,12106.94097,E,3,12,0.50,5.50,M,,M,,*4F
$GPRMC,054126.840,A,3104.64484,N,12106.94070,E,38.91,211.99,250126,,,*16
$GPGGA,054126.840,3104.64484,N,12106.94070,E,3,12,0.50,5.50,M,,M,,*4C
$GPRMC,054126.880,A,3104.64446,N,12106.94045,E,38.93,210.95,250126,,,*1D
$GPGGA,054126.880,3104.64446,N,12106.94045,E,3,12,0.50,5.50,M,,M,,*48
$GPRMC,054126.920,A,3104.64408,N,12106.94021,E,38.93,210.00,250126,,,*12
$GPGGA,054126.920,3104.64408,N,12106.94021,E,3,12,0.50,5.50,M,,M,,*4B
$GPRMC,054126.960,A,3104.64370,N,12106.93997,E,38.79,209.32,250126,,,*10
$GPGGA,054126.960,3104.64370,N,12106.93997,E,3,12,0.50,5.50,M,,M,,*44
$GPRMC,054127.040,A,3104.64295,N,12106.93950,E,38.16,208.12,250126,,,*11
$GPGGA,054127.040,3104.64295,N,12106.93950,E,3,12,0.50,5.50,M,,M,,*4F
$GPRMC,054127.080,A,3104.64257,N,12106.93928,E,38.09,207.39,250126,,,*14
$GPGGA,054127.080,3104.64257,N,12106.93928,E,3,12,0.50,5.50,M,,M,,*42
$GPRMC,054127.120,A,3104.64219,N,12106.93906,E,38.25,206.61,250126,,,*1B
$GPGGA,054127.120,3104.64219,N,12106.93906,E,3,12,0.50,5.50,M,,M,,*4F
$GPRMC,054127.160,A,3104.64180,N,12106.93884,E,38.51,205.77,250126,,,*10
$GPGGA,054127.160,3104.64180,N,12106.93884,E,3,12,0.50,5.50,M,,M,,*43
$GPRMC,054127.200,A,3104.64141,N,12106.93864,E,38.57,204.96,250126,,,*1E
$GPGGA,054127.200,3104.64141,N,12106.93864,E,3,12,0.50,5.50,M,,M,,*45
$GPRMC,054127.240,A,3104.64102,N,12106.93844,E,38.39,204.19,250126,,,*10
$GPGGA,054127.240,3104.64102,N,12106.93844,E,3,12,0.50,5.50,M,,M,,*44
$GPRMC,054127.280,A,3104.64063,N,12106.93824,E,38.25,203.32,250126,,,*1F
$GPGGA,054127.280,3104.64063,N,12106.93824,E,3,12,0.50,5.50,M,,M,,*48
$GPRMC,054127.320,A,3104.64023,N,12106.93806,E,38.08,202.23,250126,,,*1E
$GPGGA,054127.320,3104.64023,N,12106.93806,E,3,12,0.50,5.50,M,,M,,*47
$GPRMC,054127.360,A,3104.63984,N,12106.93789,E,38.04,201.20,250126,,,*1D
$GPGGA,054127.360,3104.63984,N,12106.93789,E,3,12,0.50,5.50,M,,M,,*48
$GPRMC,054127.400,A,3104.63944,N,12106.93772,E,38.00,200.45,250126,,,*12
$GPGGA,054127.400,3104.63944,N,12106.93772,E,3,12,0.50,5.50,M,,M,,*41
$GPRMC,054127.440,A,3104.63904,N,12106.93757,E,37.98,199.45,250126,,,*18
$GPGGA,054127.440,3104.63904,N,12106.93757,E,3,12,0.50,5.50,M,,M,,*46
$GPRMC,054127.480,A,3104.63864,N,12106.93741,E,37.92,198.75,250126,,,*1C
$GPGGA,054127.480,3104.63864,N,12106.93741,E,3,12,0.50,5.50,M,,M,,*4A
$GPRMC,054127.520,A,3104.63824,N,12106.93727,E,37.73,197.97,250126,,,*1F
$GPGGA,054127.520,3104.63824,N,12106.93727,E,3,12,0.50,5.50,M,,M,,*45
$GPRMC,054127.560,A,3104.63784,N,12106.93713,E,37.63,197.04,250126,,,*12
$GPGGA,054127.560,3104.63784,N,12106.93713,E,3,12,0.50,5.50,M,,M,,*43
$GPRMC,054127.640,A,3104.63703,N,12106.93688,E,37.41,194.65,250126,,,*1B
$GPGGA,054127.640,3104.63703,N,12106.93688,E,3,12,0.50,5.50,M,,M,,*4E
$GPRMC,054127.680,A,3104.63663,N,12106.93677,E,37.31,193.57,250126,,,*11
$GPGGA,054127.680,3104.63663,N,12106.93677,E,3,12,0.50,5.50,M,,M,,*45
$GPRMC,054127.720,A,3104.63622,N,12106.93668,E,37.28,192.50,250126,,,*1F
$GPGGA,054127.720,3104.63622,N,12106.93668,E,3,12,0.50,5.50,M,,M,,*45
$GPRMC,054127.760,A,3104.63581,N,12106.93658,E,36.99,191.56,250126,,,*1C
$GPGGA,054127.760,3104.63581,N,12106.93658,E,3,12,0.50,5.60,M,,M,,*4B
$GPRMC,054127.800,A,3104.63541,N,12106.93650,E,36.92,190.86,250126,,,*16
$GPGGA,054127.800,3104.63541,N,12106.93650,E,3,12,0.50,5.60,M,,M,,*46
$GPRMC,054127.840,A,3104.63500,N,12106.93642,E,36.90,189.78,250126,,,*1F
$GPGGA,054127.840,3104.63500,N,12106.93642,E,3,12,0.50,5.60,M,,M,,*44
$GPRMC,054127.880,A,3104.63459,N,12106.93635,E,36.83,188.77,250126,,,*12
$GPGGA,054127.880,3104.63459,N,12106.93635,E,3,12,0.50,5.60,M,,M,,*45
$GPRMC,054127.920,A,3104.63419,N,12106.93629,E,36.70,187.83,250126,,,*18
$GPGGA,054127.920,3104.63419,N,12106.93629,E,3,12,0.50,5.60,M,,M,,*47
$GPRMC,054127.960,A,3104.63378,N,12106.93624,E,36.68,187.29,250126,,,*18
$GPGGA,054127.960,3104.63378,N,12106.93624,E,3,12,0.50,5.60,M,,M,,*4E
$GPRMC,054128.040,A,3104.63297,N,12106.93615,E,36.66,185.55,250126,,,*19
$GPGGA,054128.040,3104.63297,N,12106.93615,E,3,12,0.50,5.60,M,,M,,*48
$GPRMC,054128.080,A,3104.63256,N,12106.93612,E,36.48,184.36,250126,,,*17
$GPGGA,054128.080,3104.63256,N,12106.93612,E,3,12,0.50,5.60,M,,M,,*4E
$GPRMC,054128.120,A,3104.63216,N,12106.93610,E,36.32,183.49,250126,,,*18
$GPGGA,054128.120,3104.63216,N,12106.93610,E,3,12,0.50,5.60,M,,M,,*43
$GPRMC,054128.160,A,3104.63176,N,12106.93609,E,36.16,182.36,250126,,,*1E
$GPGGA,054128.160,3104.63176,N,12106.93609,E,3,12,0.50,5.60,M,,M,,*4A
$GPRMC,054128.200,A,3104.63135,N,12106.93608,E,36.32,181.30,250126,,,*1E
$GPGGA,054128.200,3104.63135,N,12106.93608,E,3,12,0.50,5.60,M,,M,,*49
$GPRMC,054128.240,A,3104.63095,N,12106.93608,E,36.37,180.58,250126,,,*1B
$GPGGA,054128.240,3104.63095,N,12106.93608,E,3,12,0.50,5.60,M,,M,,*46
$GPRMC,054128.280,A,3104.63054,N,12106.93610,E,36.21,179.54,250126,,,*1E
$GPGGA,054128.280,3104.63054,N,12106.93610,E,3,12,0.50,5.60,M,,M,,*4E
$GPRMC,054128.320,A,3104.63015,N,12106.93611,E,35.85,178.27,250126,,,*19
$GPGGA,054128.320,3104.63015,N,12106.93611,E,3,12,0.50,5.60,M,,M,,*41
$GPRMC,054128.360,A,3104.62975,N,12106.93614,E,35.91,177.16,250126,,,*1E
$GPGGA,054128.360,3104.62975,N,12106.93614,E,3,12,0.50,5.60,M,,M,,*4E
$GPRMC,054128.400,A,3104.62935,N,12106.93618,E,35.93,176.08,250126,,,*1B
$GPGGA,054128.400,3104.62935,N,12106.93618,E,3,12,0.50,5.60,M,,M,,*47
$GPRMC,054128.440,A,3104.62895,N,12106.93623,E,35.87,174.84,250126,,,*1F
$GPGGA,054128.440,3104.62895,N,12106.93623,E,3,12,0.50,5.60,M,,M,,*40
$GPRMC,054128.480,A,3104.62856,N,12106.93629,E,35.77,173.68,250126,,,*1C
$GPGGA,054128.480,3104.62856,N,12106.93629,E,3,12,0.50,5.60,M,,M,,*49
$GPRMC,054128.520,A,3104.62817,N,12106.93635,E,35.74,172.46,250126,,,*11
$GPGGA,054128.520,3104.62817,N,12106.93635,E,3,12,0.50,5.60,M,,M,,*4A
$GPRMC,054128.560,A,3104.62778,N,12106.93643,E,35.59,171.33,250126,,,*1C
$GPGGA,054128.560,3104.62778,N,12106.93643,E,3,12,0.50,5.60,M,,M,,*49
$GPRMC,054128.600,A,3104.62739,N,12106.93652,E,35.65,170.12,250126,,,*11
$GPGGA,054128.600,3104.62739,N,12106.93652,E,3,12,0.50,5.60,M,,M,,*49
$GPRMC,054128.640,A,3104.62700,N,12106.93661,E,35.53,169.10,250126,,,*10
$GPGGA,054128.640,3104.62700,N,12106.93661,E,3,12,0.50,5.60,M,,M,,*47
$GPRMC,054128.680,A,3104.62662,N,12106.93671,E,35.31,167.86,250126,,,*1D
$GPGGA,054128.680,3104.62662,N,12106.93671,E,3,12,0.50,5.60,M,,M,,*4F
$GPRMC,054128.720,A,3104.62623,N,12106.93682,E,35.18,166.59,250126,,,*17
$GPGGA,054128.720,3104.62623,N,12106.93682,E,3,12,0.50,5.60,M,,M,,*4D
$GPRMC,054128.760,A,3104.62586,N,12106.93694,E,34.89,165.11,250126,,,*1E
$GPGGA,054128.760,3104.62586,N,12106.93694,E,3,12,0.50,5.60,M,,M,,*42
$GPRMC,054128.800,A,3104.62549,N,12106.93707,E,34.85,163.68,250126,,,*1B
$GPGGA,054128.800,3104.62549,N,12106.93707,E,3,12,0.50,5.60,M,,M,,*43
$GPRMC,054128.840,A,3104.62512,N,12106.93722,E,34.80,162.27,250126,,,*19
$GPGGA,054128.840,3104.62512,N,12106.93722,E,3,12,0.50,5.70,M,,M,,*4F
$GPRMC,054128.880,A,3104.62476,N,12106.93737,E,34.79,161.28,250126,,,*18
$GPGGA,054128.880,3104.62476,N,12106.93737,E,3,12,0.50,5.70,M,,M,,*44
$GPRMC,054128.920,A,3104.62439,N,12106.93752,E,34.82,160.23,250126,,,*15
$GPGGA,054128.920,3104.62439,N,12106.93752,E,3,12,0.50,5.70,M,,M,,*47
$GPRMC,054128.960,A,3104.62403,N,12106.93769,E,34.90,159.39,250126,,,*12
$GPGGA,054128.960,3104.62403,N,12106.93769,E,3,12,0.50,5.70,M,,M,,*42
$GPRMC,054129.040,A,3104.62332,N,12106.93804,E,34.58,156.65,250126,,,*1B
$GPGGA,054129.040,3104.62332,N,12106.93804,E,3,12,0.50,5.70,M,,M,,*49
$GPRMC,054129.080,A,3104.62297,N,12106.93823,E,34.31,155.62,250126,,,*17
$GPGGA,054129.080,3104.62297,N,12106.93823,E,3,12,0.50,5.70,M,,M,,*4E
$GPRMC,054129.120,A,3104.62263,N,12106.93842,E,34.30,154.51,250126,,,*10
$GPGGA,054129.120,3104.62263,N,12106.93842,E,3,12,0.50,5.70,M,,M,,*49
$GPRMC,054129.160,A,3104.62229,N,12106.93863,E,34.41,153.30,250126,,,*1F
$GPGGA,054129.160,3104.62229,N,12106.93863,E,3,12,0.50,5.70,M,,M,,*40
$GPRMC,054129.200,A,3104.62195,N,12106.93884,E,34.38,152.10,250126,,,*1A
$GPGGA,054129.200,3104.62195,N,12106.93884,E,3,12,0.50,5.70,M,,M,,*48
$GPRMC,054129.240,A,3104.62161,N,12106.93907,E,34.45,150.80,250126,,,*1E
$GPGGA,054129.240,3104.62161,N,12106.93907,E,3,12,0.50,5.70,M,,M,,*4D
$GPRMC,054129.280,A,3104.62128,N,12106.93929,E,34.56,149.78,250126,,,*1E
$GPGGA,054129.280,3104.62128,N,12106.93929,E,3,12,0.50,5.60,M,,M,,*41
$GPRMC,054129.320,A,3104.62095,N,12106.93953,E,34.73,149.00,250126,,,*17
$GPGGA,054129.320,3104.62095,N,12106.93953,E,3,12,0.50,5.70,M,,M,,*41
$GPRMC,054129.360,A,3104.62062,N,12106.93978,E,34.84,147.79,250126,,,*1A
$GPGGA,054129.360,3104.62062,N,12106.93978,E,3,12,0.50,5.70,M,,M,,*44
$GPRMC,054129.400,A,3104.62029,N,12106.94003,E,34.93,146.77,250126,,,*1F
$GPGGA,054129.400,3104.62029,N,12106.94003,E,3,12,0.50,5.70,M,,M,,*48
$GPRMC,054129.480,A,3104.61966,N,12106.94055,E,34.93,145.09,250126,,,*1F
$GPGGA,054129.480,3104.61966,N,12106.94055,E,3,12,0.50,5.70,M,,M,,*42
$GPRMC,054129.520,A,3104.61934,N,12106.94082,E,35.16,144.41,250126,,,*18
$GPGGA,054129.520,3104.61934,N,12106.94082,E,3,12,0.50,5.70,M,,M,,*44
$GPRMC,054129.560,A,3104.61902,N,12106.94110,E,35.34,143.32,250126,,,*10
$GPGGA,054129.560,3104.61902,N,12106.94110,E,3,12,0.50,5.70,M,,M,,*4F
$GPRMC,054129.600,A,3104.61872,N,12106.94138,E,35.49,142.36,250126,,,*16
$GPGGA,054129.600,3104.61872,N,12106.94138,E,3,12,0.50,5.60,M,,M,,*47
