$GPRMC,130837.560,A,3116.62407,N,12111.62621,E,0.15172786080000003,0.0,050226,,,A*63
$GPGGA,130837.560,3116.62407,N,12111.62621,E,1,10,0.9,0.0,M,0.0,M,,*68
$GPGSV,2,1,08,01,40,083,41,02,17,023,43,03,30,110,42,04,22,234,39*76
$GPGSV,2,2,08,05,75,050,45,06,10,300,40,07,52,145,38,08,35,200,44*75
$GPRMC,130837.600,A,3116.62407,N,12111.62620,E,0.1285097184,0.0,050226,,,A*58
$GPGGA,130837.600,3116.62407,N,12111.62620,E,1,10,0.9,0.0,M,0.0,M,,*6C
$GPGSV,2,1,08,01,40,083,41,02,17,023,43,03,30,110,42,04,22,234,39*76
$GPGSV,2,2,08,05,75,050,45,06,10,300,40,07,52,145,38,08,35,200,44*75
$GPRMC,130837.600,A,3116.62407,N,12111.62620,E,0.1285097184,0.0,050226,,,A*58
$GPGGA,130837.600,3116.62407,N,12111.62620,E,1,10,0.9,0.0,M,0.0,M,,*6C
$GPGSV,2,1,08,01,40,083,41,02,17,023,43,03,30,110,42,04,22,234,39*76
$GPGSV,2,2,08,05,75,050,45,06,10,300,40,07,52,145,38,08,35,200,44*75
$GPRMC,130837.640,A,3116.62408,N,12111.62620,E,0.1382289408,0.0,050226,,,A*59
$GPGGA,130837.640,3116.62408,N,12111.62620,E,1,10,0.9,0.0,M,0.0,M,,*67
$GPGSV,2,1,08,01,40,083,41,02,17,023,43,03,30,110,42,04,22,234,39*76
$GPGSV,2,2,08,05,75,050,45,06,10,300,40,07,52,145,38,08,35,200,44*75
$GPRMC,130837.680,A,3116.62409,N,12111.62620,E,0.1166306688,0.0,050226,,,A*50
$GPGGA,130837.680,3116.62409,N,12111.62620,E,1,10,0.9,0.0,M,0.0,M,,*6A
$GPGSV,2,1,08,01,40,083,41,02,17,023,43,03,30,110,42,04,22,234,39*76
$GPGSV,2,2,08,05,75,050,45,06,10,300,40,07,52,145,38,08,35,200,44*75
$GPRMC,130837.720,A,3116.62409,N,12111.62619,E,0.1047516192,0.0,050226,,,A*58
$GPGGA,130837.720,3116.62409,N,12111.62619,E,1,10,0.9,0.0,M,0.0,M,,*6B
$GPGSV,2,1,08,01,40,083,41,02,17,023,43,03,30,110,42,04,22,234,39*76
$GPGSV,2,2,08,05,75,050,45,06,10,300,40,07,52,145,38,08,35,200,44*75
$GPRMC,130837.760,A,3116.62410,N,12111.62619,E,0.1225701936,0.0,050226,,,A*50
$GPGGA,130837.760,3116.62410,N,12111.62619,E,1,10,0.9,0.0,M,0.0,M,,*67
$GPGSV,2,1,08,01,40,083,41,02,17,023,43,03,30,110,42,04,22,234,39*76
$GPGSV,2,2,08,05,75,050,45,06,10,300,40,07,52,145,38,08,35,200,44*75
$GPRMC,130837.800,A,3116.62412,N,12111.62619,E,0.1339092864,0.0,050226,,,A*5C
$GPGGA,130837.800,3116.62412,N,12111.62619,E,1,10,0.9,0.0,M,0.0,M,,*6C
$GPGSV,2,1,08,01,40,083,41,02,17,023,43,03,30,110,42,04,22,234,39*76
$GPGSV,2,2,08,05,75,050,45,06,10,300,40,07,52,145,38,08,35,200,44*75
$GPRMC,130837.840,A,3116.62412,N,12111.62619,E,0.1436285088,0.0,050226,,,A*5E
$GPGGA,130837.840,3116.62412,N,12111.62619,E,1,10,0.9,0.0,M,0.0,M,,*68
$GPGSV,2,1,08,01,40,083,41,02,17,023,43,03,30,110,42,04,22,234,39*76
$GPGSV,2,2,08,05,75,050,45,06,10,300,40,07,52,145,38,08,35,200,44*75
$GPRMC,130837.840,A,3116.62412,N,12111.62619,E,0.1436285088,0.0,050226,,,A*5E
$GPGGA,130837.840,3116.62412,N,12111.62619,E,1,10,0.9,0.0,M,0.0,M,,*68
$GPGSV,2,1,08,01,40,083,41,02,17,023,43,03,30,110,42,04,22,234,39*76
$GPGSV,2,2,08,05,75,050,45,06,10,300,40,07,52,145,38,08,35,200,44*75
$GPRMC,130837.880,A,3116.62413,N,12111.62619,E,0.17710583040000002,0.0,050226,,,A*64
$GPGGA,130837.880,3116.62413,N,12111.62619,E,1,10,0.9,0.0,M,0.0,M,,*65
$GPGSV,2,1,08,01,40,083,41,02,17,023,43,03,30,110,42,04,22,234,39*76
$GPGSV,2,2,08,05,75,050,45,06,10,300,40,07,52,145,38,08,35,200,44*75
$GPRMC,130837.920,A,3116.62413,N,12111.62619,E,0.194384448,0.0,050226,,,A*6C
$GPGGA,130837.920,3116.62413,N,12111.62619,E,1,10,0.9,0.0,M,0.0,M,,*6E
$GPGSV,2,1,08,01,40,083,41,02,17,023,43,03,30,110,42,04,22,234,39*76
$GPGSV,2,2,08,05,75,050,45,06,10,300,40,07,52,145,38,08,35,200,44*75
$GPRMC,130837.960,A,3116.62414,N,12111.62619,E,0.2062634976,0.0,050226,,,A*5B
$GPGGA,130837.960,3116.62414,N,12111.62619,E,1,10,0.9,0.0,M,0.0,M,,*6D
$GPGSV,2,1,08,01,40,083,41,02,17,023,43,03,30,110,42,04,22,234,39*76
$GPGSV,2,2,08,05,75,050,45,06,10,300,40,07,52,145,38,08,35,200,44*75
$GPRMC,130838.000,A,3116.62413,N,12111.62619,E,0.159287256,0.0,050226,,,A*62
$GPGGA,130838.000,3116.62413,N,12111.62619,E,1,10,0.9,0.0,M,0.0,M,,*6A
$GPGSV,2,1,08,01,40,083,41,02,17,023,43,03,30,110,42,04,22,234,39*76
$GPGSV,2,2,08,05,75,050,45,06,10,300,40,07,52,145,38,08,35,200,44*75
$GPRMC,130838.040,A,3116.62413,N,12111.62619,E,0.1128509712,0.0,050226,,,A*55
$GPGGA,130838.040,3116.62413,N,12111.62619,E,1,10,0.9,0.0,M,0.0,M,,*6E
$GPGSV,2,1,08,01,40,083,41,02,17,023,43,03,30,110,42,04,22,234,39*76
$GPGSV,2,2,08,05,75,050,45,06,10,300,40,07,52,145,38,08,35,200,44*75
$GPRMC,130838.040,A,3116.62413,N,12111.62619,E,0.1128509712,0.0,050226,,,A*55
$GPGGA,130838.040,3116.62413,N,12111.62619,E,1,10,0.9,0.0,M,0.0,M,,*6E
$GPGSV,2,1,08,01,40,083,41,02,17,023,43,03,30,110,42,04,22,234,39*76
$GPGSV,2,2,08,05,75,050,45,06,10,300,40,07,52,145,38,08,35,200,44*75
$GPRMC,130838.080,A,3116.62414,N,12111.62618,E,0.124190064,0.0,050226,,,A*60
$GPGGA,130838.080,3116.62414,N,12111.62618,E,1,10,0.9,0.0,M,0.0,M,,*64
$GPGSV,2,1,08,01,40,083,41,02,17,023,43,03,30,110,42,04,22,234,39*76
$GPGSV,2,2,08,05,75,050,45,06,10,300,40,07,52,145,38,08,35,200,44*75
$GPRMC,130838.120,A,3116.62415,N,12111.62618,E,0.12041036640000001,0.0,050226,,,A*67
$GPGGA,130838.120,3116.62415,N,12111.62618,E,1,10,0.9,0.0,M,0.0,M,,*6E
$GPGSV,2,1,08,01,40,083,41,02,17,023,43,03,30,110,42,04,22,234,39*76
$GPGSV,2,2,08,05,75,050,45,06,10,300,40,07,52,145,38,08,35,200,44*75
$GPRMC,130838.160,A,3116.62415,N,12111.62618,E,0.1285097184,0.0,050226,,,A*5E
$GPGGA,130838.160,3116.62415,N,12111.62618,E,1,10,0.9,0.0,M,0.0,M,,*6A
$GPGSV,2,1,08,01,40,083,41,02,17,023,43,03,30,110,42,04,22,234,39*76
$GPGSV,2,2,08,05,75,050,45,06,10,300,40,07,52,145,38,08,35,200,44*75
$GPRMC,130838.200,A,3116.62415,N,12111.62618,E,0.11069114399999999,0.0,050226,,,A*6E
$GPGGA,130838.200,3116.62415,N,12111.62618,E,1,10,0.9,0.0,M,0.0,M,,*6F
$GPGSV,2,1,08,01,40,083,41,02,17,023,43,03,30,110,42,04,22,234,39*76
$GPGSV,2,2,08,05,75,050,45,06,10,300,40,07,52,145,38,08,35,200,44*75
$GPRMC,130838.240,A,3116.62416,N,12111.62618,E,0.1398488112,0.0,050226,,,A*54
$GPGGA,130838.240,3116.62416,N,12111.62618,E,1,10,0.9,0.0,M,0.0,M,,*68
$GPGSV,2,1,08,01,40,083,41,02,17,023,43,03,30,110,42,04,22,234,39*76
$GPGSV,2,2,08,05,75,050,45,06,10,300,40,07,52,145,38,08,35,200,44*75
$GPRMC,130838.280,A,3116.62416,N,12111.62618,E,0.1285097184,0.0,050226,,,A*50
$GPGGA,130838.280,3116.62416,N,12111.62618,E,1,10,0.9,0.0,M,0.0,M,,*64
$GPGSV,2,1,08,01,40,083,41,02,17,023,43,03,30,110,42,04,22,234,39*76
$GPGSV,2,2,08,05,75,050,45,06,10,300,40,07,52,145,38,08,35,200,44*75
$GPRMC,130838.320,A,3116.62418,N,12111.62618,E,0.1495680336,0.0,050226,,,A*59
$GPGGA,130838.320,3116.62418,N,12111.62618,E,1,10,0.9,0.0,M,0.0,M,,*61
$GPGSV,2,1,08,01,40,083,41,02,17,023,43,03,30,110,42,04,22,234,39*76
$GPGSV,2,2,08,05,75,050,45,06,10,300,40,07,52,145,38,08,35,200,44*75
$GPRMC,130838.360,A,3116.62419,N,12111.62616,E,0.172786176,0.0,050226,,,A*6E
$GPGGA,130838.360,3116.62419,N,12111.62616,E,1,10,0.9,0.0,M,0.0,M,,*6A
$GPGSV,2,1,08,01,40,083,41,02,17,023,43,03,30,110,42,04,22,234,39*76
$GPGSV,2,2,08,05,75,050,45,06,10,300,40,07,52,145,38,08,35,200,44*75
$GPRMC,130838.400,A,3116.62420,N,12111.62616,E,0.2451403872,0.0,050226,,,A*50
$GPGGA,130838.400,3116.62420,N,12111.62616,E,1,10,0.9,0.0,M,0.0,M,,*61
$GPGSV,2,1,08,01,40,083,41,02,17,023,43,03,30,110,42,04,22,234,39*76
$GPGSV,2,2,08,05,75,050,45,06,10,300,40,07,52,145,38,08,35,200,44*75
$GPRMC,130838.440,A,3116.62421,N,12111.62616,E,0.2796976224,0.0,050226,,,A*5B
$GPGGA,130838.440,3116.62421,N,12111.62616,E,1,10,0.9,0.0,M,0.0,M,,*64
$GPGSV,2,1,08,01,40,083,41,02,17,023,43,03,30,110,42,04,22,234,39*76
$GPGSV,2,2,08,05,75,050,45,06,10,300,40,07,52,145,38,08,35,200,44*75
$GPRMC,130838.480,A,3116.62421,N,12111.62615,E,0.3110151168,0.0,050226,,,A*5B
$GPGGA,130838.480,3116.62421,N,12111.62615,E,1,10,0.9,0.0,M,0.0,M,,*6B
$GPGSV,2,1,08,01,40,083,41,02,17,023,43,03,30,110,42,04,22,234,39*76
$GPGSV,2,2,08,05,75,050,45,06,10,300,40,07,52,145,38,08,35,200,44*75
$GPRMC,130838.520,A,3116.62422,N,12111.62614,E,0.3596112288,0.0,050226,,,A*52
$GPGGA,130838.520,3116.62422,N,12111.62614,E,1,10,0.9,0.0,M,0.0,M,,*62
$GPGSV,2,1,08,01,40,083,41,02,17,023,43,03,30,110,42,04,22,234,39*76
$GPGSV,2,2,08,05,75,050,45,06,10,300,40,07,52,145,38,08,35,200,44*75
$GPRMC,130838.560,A,3116.62422,N,12111.62614,E,0.3282937344,0.0,050226,,,A*5A
$GPGGA,130838.560,3116.62422,N,12111.62614,E,1,10,0.9,0.0,M,0.0,M,,*66
$GPGSV,2,1,08,01,40,083,41,02,17,023,43,03,30,110,42,04,22,234,39*76
$GPGSV,2,2,08,05,75,050,45,06,10,300,40,07,52,145,38,08,35,200,44*75
$GPRMC,130838.600,A,3116.62422,N,12111.62614,E,0.2526997824,0.0,050226,,,A*50
$GPGGA,130838.600,3116.62422,N,12111.62614,E,1,10,0.9,0.0,M,0.0,M,,*63
$GPGSV,2,1,08,01,40,083,41,02,17,023,43,03,30,110,42,04,22,234,39*76
$GPGSV,2,2,08,05,75,050,45,06,10,300,40,07,52,145,38,08,35,200,44*75
$GPRMC,130838.640,A,3116.62422,N,12111.62614,E,0.2062634976,0.0,050226,,,A*51
$GPGGA,130838.640,3116.62422,N,12111.62614,E,1,10,0.9,0.0,M,0.0,M,,*67
$GPGSV,2,1,08,01,40,083,41,02,17,023,43,03,30,110,42,04,22,234,39*76
$GPGSV,2,2,08,05,75,050,45,06,10,300,40,07,52,145,38,08,35,200,44*75
$GPRMC,130838.680,A,3116.62422,N,12111.62614,E,0.21598272000000002,0.0,050226,,,A*60
$GPGGA,130838.680,3116.62422,N,12111.62614,E,1,10,0.9,0.0,M,0.0,M,,*6B
$GPGSV,2,1,08,01,40,083,41,02,17,023,43,03,30,110,42,04,22,234,39*76
$GPGSV,2,2,08,05,75,050,45,06,10,300,40,07,52,145,38,08,35,200,44*75
$GPRMC,130838.680,A,3116.62422,N,12111.62614,E,0.21598272000000002,0.0,050226,,,A*60
$GPGGA,130838.680,3116.62422,N,12111.62614,E,1,10,0.9,0.0,M,0.0,M,,*6B
$GPGSV,2,1,08,01,40,083,41,02,17,023,43,03,30,110,42,04,22,234,39*76
$GPGSV,2,2,08,05,75,050,45,06,10,300,40,07,52,145,38,08,35,200,44*75
$GPRMC,130838.720,A,3116.62422,N,12111.62615,E,0.1711663056,0.0,050226,,,A*5E
$GPGGA,130838.720,3116.62422,N,12111.62615,E,1,10,0.9,0.0,M,0.0,M,,*61
$GPGSV,2,1,08,01,40,083,41,02,17,023,43,03,30,110,42,04,22,234,39*76
$GPGSV,2,2,08,05,75,050,45,06,10,300,40,07,52,145,38,08,35,200,44*75
$GPRMC,130838.760,A,3116.62423,N,12111.62615,E,0.1420086384,0.0,050226,,,A*5B
$GPGGA,130838.760,3116.62423,N,12111.62615,E,1,10,0.9,0.0,M,0.0,M,,*64
$GPGSV,2,1,08,01,40,083,41,02,17,023,43,03,30,110,42,04,22,234,39*76
$GPGSV,2,2,08,05,75,050,45,06,10,300,40,07,52,145,38,08,35,200,44*75
$GPRMC,130838.800,A,3116.62423,N,12111.62616,E,0.1495680336,0.0,050226,,,A*56
$GPGGA,130838.800,3116.62423,N,12111.62616,E,1,10,0.9,0.0,M,0.0,M,,*6E
$GPGSV,2,1,08,01,40,083,41,02,17,023,43,03,30,110,42,04,22,234,39*76
$GPGSV,2,2,08,05,75,050,45,06,10,300,40,07,52,145,38,08,35,200,44*75
$GPRMC,130838.840,A,3116.62424,N,12111.62616,E,0.1884449232,0.0,050226,,,A*5B
$GPGGA,130838.840,3116.62424,N,12111.62616,E,1,10,0.9,0.0,M,0.0,M,,*6D
$GPGSV,2,1,08,01,40,083,41,02,17,023,43,03,30,110,42,04,22,234,39*76
$GPGSV,2,2,08,05,75,050,45,06,10,300,40,07,52,145,38,08,35,200,44*75
$GPRMC,130838.840,A,3116.62424,N,12111.62616,E,0.1884449232,0.0,050226,,,A*5B
$GPGGA,130838.840,3116.62424,N,12111.62616,E,1,10,0.9,0.0,M,0.0,M,,*6D
$GPGSV,2,1,08,01,40,083,41,02,17,023,43,03,30,110,42,04,22,234,39*76
$GPGSV,2,2,08,05,75,050,45,06,10,300,40,07,52,145,38,08,35,200,44*75
$GPRMC,130838.880,A,3116.62426,N,12111.62615,E,0.2796976224,0.0,050226,,,A*5F
$GPGGA,130838.880,3116.62426,N,12111.62615,E,1,10,0.9,0.0,M,0.0,M,,*60
$GPGSV,2,1,08,01,40,083,41,02,17,023,43,03,30,110,42,04,22,234,39*76
$GPGSV,2,2,08,05,75,050,45,06,10,300,40,07,52,145,38,08,35,200,44*75
$GPRMC,130838.920,A,3116.62427,N,12111.62613,E,0.3207343392,0.0,050226,,,A*5F
$GPGGA,130838.920,3116.62427,N,12111.62613,E,1,10,0.9,0.0,M,0.0,M,,*6C
$GPGSV,2,1,08,01,40,083,41,02,17,023,43,03,30,110,42,04,22,234,39*76
$GPGSV,2,2,08,05,75,050,45,06,10,300,40,07,52,145,38,08,35,200,44*75
$GPRMC,130838.960,A,3116.62427,N,12111.62613,E,0.3207343392,0.0,050226,,,A*5B
$GPGGA,130838.960,3116.62427,N,12111.62613,E,1,10,0.9,0.0,M,0.0,M,,*68
$GPGSV,2,1,08,01,40,083,41,02,17,023,43,03,30,110,42,04,22,234,39*76
$GPGSV,2,2,08,05,75,050,45,06,10,300,40,07,52,145,38,08,35,200,44*75
$GPRMC,130839.000,A,3116.62428,N,12111.62613,E,0.3282937344,0.0,050226,,,A*55
$GPGGA,130839.000,3116.62428,N,12111.62613,E,1,10,0.9,0.0,M,0.0,M,,*69
$GPGSV,2,1,08,01,40,083,41,02,17,023,43,03,30,110,42,04,22,234,39*76
$GPGSV,2,2,08,05,75,050,45,06,10,300,40,07,52,145,38,08,35,200,44*75
$GPRMC,130839.040,A,3116.62428,N,12111.62613,E,0.3326133888,0.0,050226,,,A*59
$GPGGA,130839.040,3116.62428,N,12111.62613,E,1,10,0.9,0.0,M,0.0,M,,*6D
$GPGSV,2,1,08,01,40,083,41,02,17,023,43,03,30,110,42,04,22,234,39*76
$GPGSV,2,2,08,05,75,050,45,06,10,300,40,07,52,145,38,08,35,200,44*75
$GPRMC,130839.040,A,3116.62428,N,12111.62613,E,0.3326133888,0.0,050226,,,A*59
$GPGGA,130839.040,3116.62428,N,12111.62613,E,1,10,0.9,0.0,M,0.0,M,,*6D
$GPGSV,2,1,08,01,40,083,41,02,17,023,43,03,30,110,42,04,22,234,39*76
$GPGSV,2,2,08,05,75,050,45,06,10,300,40,07,52,145,38,08,35,200,44*75
$GPRMC,130839.080,A,3116.62429,N,12111.62613,E,0.340172784,0.0,050226,,,A*61
$GPGGA,130839.080,3116.62429,N,12111.62613,E,1,10,0.9,0.0,M,0.0,M,,*60
$GPGSV,2,1,08,01,40,083,41,02,17,023,43,03,30,110,42,04,22,234,39*76
$GPGSV,2,2,08,05,75,050,45,06,10,300,40,07,52,145,38,08,35,200,44*75
$GPRMC,130839.120,A,3116.62430,N,12111.62612,E,0.3363930864,0.0,050226,,,A*5E
$GPGGA,130839.120,3116.62430,N,12111.62612,E,1,10,0.9,0.0,M,0.0,M,,*62
$GPGSV,2,1,08,01,40,083,41,02,17,023,43,03,30,110,42,04,22,234,39*76
$GPGSV,2,2,08,05,75,050,45,06,10,300,40,07,52,145,38,08,35,200,44*75
$GPRMC,130839.160,A,3116.62430,N,12111.62612,E,0.35583153120000005,0.0,050226,,,A*66
$GPGGA,130839.160,3116.62430,N,12111.62612,E,1,10,0.9,0.0,M,0.0,M,,*66
$GPGSV,2,1,08,01,40,083,41,02,17,023,43,03,30,110,42,04,22,234,39*76
$GPGSV,2,2,08,05,75,050,45,06,10,300,40,07,52,145,38,08,35,200,44*75
$GPRMC,130839.160,A,3116.62430,N,12111.62612,E,0.35583153120000005,0.0,050226,,,A*66
$GPGGA,130839.160,3116.62430,N,12111.62612,E,1,10,0.9,0.0,M,0.0,M,,*66
$GPGSV,2,1,08,01,40,083,41,02,17,023,43,03,30,110,42,04,22,234,39*76
$GPGSV,2,2,08,05,75,050,45,06,10,300,40,07,52,145,38,08,35,200,44*75
$GPRMC,130839.200,A,3116.62431,N,12111.62612,E,0.36555075360000006,0.0,050226,,,A*6A
$GPGGA,130839.200,3116.62431,N,12111.62612,E,1,10,0.9,0.0,M,0.0,M,,*62
$GPGSV,2,1,08,01,40,083,41,02,17,023,43,03,30,110,42,04,22,234,39*76
$GPGSV,2,2,08,05,75,050,45,06,10,300,40,07,52,145,38,08,35,200,44*75
$GPRMC,130839.240,A,3116.62432,N,12111.62612,E,0.375269976,0.0,050226,,,A*68
$GPGGA,130839.240,3116.62432,N,12111.62612,E,1,10,0.9,0.0,M,0.0,M,,*65
$GPGSV,2,1,08,01,40,083,41,02,17,023,43,03,30,110,42,04,22,234,39*76
$GPGSV,2,2,08,05,75,050,45,06,10,300,40,07,52,145,38,08,35,200,44*75
$GPRMC,130839.280,A,3116.62432,N,12111.62612,E,0.30885528959999997,0.0,050226,,,A*62
$GPGGA,130839.280,3116.62432,N,12111.62612,E,1,10,0.9,0.0,M,0.0,M,,*69
$GPGSV,2,1,08,01,40,083,41,02,17,023,43,03,30,110,42,04,22,234,39*76
$GPGSV,2,2,08,05,75,050,45,06,10,300,40,07,52,145,38,08,35,200,44*75
$GPRMC,130839.320,A,3116.62431,N,12111.62612,E,0.2661987024,0.0,050226,,,A*5B
$GPGGA,130839.320,3116.62431,N,12111.62612,E,1,10,0.9,0.0,M,0.0,M,,*61
$GPGSV,2,1,08,01,40,083,41,02,17,023,43,03,30,110,42,04,22,234,39*76
$GPGSV,2,2,08,05,75,050,45,06,10,300,40,07,52,145,38,08,35,200,44*75
$GPRMC,130839.360,A,3116.62431,N,12111.62613,E,0.264578832,0.0,050226,,,A*6E
$GPGGA,130839.360,3116.62431,N,12111.62613,E,1,10,0.9,0.0,M,0.0,M,,*64
$GPGSV,2,1,08,01,40,083,41,02,17,023,43,03,30,110,42,04,22,234,39*76
$GPGSV,2,2,08,05,75,050,45,06,10,300,40,07,52,145,38,08,35,200,44*75
$GPRMC,130839.400,A,3116.62431,N,12111.62613,E,0.1652267808,0.0,050226,,,A*5F
$GPGGA,130839.400,3116.62431,N,12111.62613,E,1,10,0.9,0.0,M,0.0,M,,*65
$GPGSV,2,1,08,01,40,083,41,02,17,023,43,03,30,110,42,04,22,234,39*76
$GPGSV,2,2,08,05,75,050,45,06,10,300,40,07,52,145,38,08,35,200,44*75
$GPRMC,130839.440,A,3116.62431,N,12111.62613,E,0.1128509712,0.0,050226,,,A*5A
$GPGGA,130839.440,3116.62431,N,12111.62613,E,1,10,0.9,0.0,M,0.0,M,,*61
$GPGSV,2,1,08,01,40,083,41,02,17,023,43,03,30,110,42,04,22,234,39*76
$GPGSV,2,2,08,05,75,050,45,06,10,300,40,07,52,145,38,08,35,200,44*75
$GPRMC,130839.480,A,3116.62432,N,12111.62612,E,0.167386608,0.0,050226,,,A*65
$GPGGA,130839.480,3116.62432,N,12111.62612,E,1,10,0.9,0.0,M,0.0,M,,*6F
$GPGSV,2,1,08,01,40,083,41,02,17,023,43,03,30,110,42,04,22,234,39*76
$GPGSV,2,2,08,05,75,050,45,06,10,300,40,07,52,145,38,08,35,200,44*75
$GPRMC,130839.520,A,3116.62433,N,12111.62611,E,0.194384448,0.0,050226,,,A*64
$GPGGA,130839.520,3116.62433,N,12111.62611,E,1,10,0.9,0.0,M,0.0,M,,*66
$GPGSV,2,1,08,01,40,083,41,02,17,023,43,03,30,110,42,04,22,234,39*76
$GPGSV,2,2,08,05,75,050,45,06,10,300,40,07,52,145,38,08,35,200,44*75
$GPRMC,130839.560,A,3116.62433,N,12111.62612,E,0.1301295888,0.0,050226,,,A*5D
$GPGGA,130839.560,3116.62433,N,12111.62612,E,1,10,0.9,0.0,M,0.0,M,,*61
$GPGSV,2,1,08,01,40,083,41,02,17,023,43,03,30,110,42,04,22,234,39*76
$GPGSV,2,2,08,05,75,050,45,06,10,300,40,07,52,145,38,08,35,200,44*75
$GPRMC,130839.600,A,3116.62433,N,12111.62612,E,0.0934125264,0.0,050226,,,A*55
$GPGGA,130839.600,3116.62433,N,12111.62612,E,1,10,0.9,0.0,M,0.0,M,,*64
$GPGSV,2,1,08,01,40,083,41,02,17,023,43,03,30,110,42,04,22,234,39*76
$GPGSV,2,2,08,05,75,050,45,06,10,300,40,07,52,145,38,08,35,200,44*75
$GPRMC,130839.640,A,3116.62433,N,12111.62612,E,0.0777537792,0.0,050226,,,A*53
$GPGGA,130839.640,3116.62433,N,12111.62612,E,1,10,0.9,0.0,M,0.0,M,,*60
$GPGSV,2,1,08,01,40,083,41,02,17,023,43,03,30,110,42,04,22,234,39*76
$GPGSV,2,2,08,05,75,050,45,06,10,300,40,07,52,145,38,08,35,200,44*75
$GPRMC,130839.680,A,3116.62433,N,12111.62612,E,0.0426565872,0.0,050226,,,A*5E
$GPGGA,130839.680,3116.62433,N,12111.62612,E,1,10,0.9,0.0,M,0.0,M,,*6C
$GPGSV,2,1,08,01,40,083,41,02,17,023,43,03,30,110,42,04,22,234,39*76
$GPGSV,2,2,08,05,75,050,45,06,10,300,40,07,52,145,38,08,35,200,44*75
$GPRMC,130839.720,A,3116.62432,N,12111.62613,E,0.0313174944,0.0,050226,,,A*54
$GPGGA,130839.720,3116.62432,N,12111.62613,E,1,10,0.9,0.0,M,0.0,M,,*67
$GPGSV,2,1,08,01,40,083,41,02,17,023,43,03,30,110,42,04,22,234,39*76
$GPGSV,2,2,08,05,75,050,45,06,10,300,40,07,52,145,38,08,35,200,44*75
$GPRMC,130839.760,A,3116.62432,N,12111.62612,E,0.0464362848,0.0,050226,,,A*5E
$GPGGA,130839.760,3116.62432,N,12111.62612,E,1,10,0.9,0.0,M,0.0,M,,*62
$GPGSV,2,1,08,01,40,083,41,02,17,023,43,03,30,110,42,04,22,234,39*76
$GPGSV,2,2,08,05,75,050,45,06,10,300,40,07,52,145,38,08,35,200,44*75
$GPRMC,130839.800,A,3116.62431,N,12111.62611,E,0.1555075584,0.0,050226,,,A*5D
$GPGGA,130839.800,3116.62431,N,12111.62611,E,1,10,0.9,0.0,M,0.0,M,,*6B
$GPGSV,2,1,08,01,40,083,41,02,17,023,43,03,30,110,42,04,22,234,39*76
$GPGSV,2,2,08,05,75,050,45,06,10,300,40,07,52,145,38,08,35,200,44*75
$GPRMC,130839.840,A,3116.62431,N,12111.62611,E,0.1711663056,0.0,050226,,,A*50
$GPGGA,130839.840,3116.62431,N,12111.62611,E,1,10,0.9,0.0,M,0.0,M,,*6F
$GPGSV,2,1,08,01,40,083,41,02,17,023,43,03,30,110,42,04,22,234,39*76
$GPGSV,2,2,08,05,75,050,45,06,10,300,40,07,52,145,38,08,35,200,44*75
$GPRMC,130839.880,A,3116.62431,N,12111.62610,E,0.2548596096,0.0,050226,,,A*55
$GPGGA,130839.880,3116.62431,N,12111.62610,E,1,10,0.9,0.0,M,0.0,M,,*62
$GPGSV,2,1,08,01,40,083,41,02,17,023,43,03,30,110,42,04,22,234,39*76
$GPGSV,2,2,08,05,75,050,45,06,10,300,40,07,52,145,38,08,35,200,44*75
$GPRMC,130839.920,A,3116.62430,N,12111.62611,E,0.28185744960000003,0.0,050226,,,A*6D
$GPGGA,130839.920,3116.62430,N,12111.62611,E,1,10,0.9,0.0,M,0.0,M,,*69
$GPGSV,2,1,08,01,40,083,41,02,17,023,43,03,30,110,42,04,22,234,39*76
$GPGSV,2,2,08,05,75,050,45,06,10,300,40,07,52,145,38,08,35,200,44*75
$GPRMC,130839.920,A,3116.62430,N,12111.62611,E,0.28185744960000003,0.0,050226,,,A*6D
$GPGGA,130839.920,3116.62430,N,12111.62611,E,1,10,0.9,0.0,M,0.0,M,,*69
$GPGSV,2,1,08,01,40,083,41,02,17,023,43,03,30,110,42,04,22,234,39*76
$GPGSV,2,2,08,05,75,050,45,06,10,300,40,07,52,145,38,08,35,200,44*75
$GPRMC,130839.960,A,3116.62429,N,12111.62612,E,0.3363930864,0.0,050226,,,A*5A
$GPGGA,130839.960,3116.62429,N,12111.62612,E,1,10,0.9,0.0,M,0.0,M,,*66
$GPGSV,2,1,08,01,40,083,41,02,17,023,43,03,30,110,42,04,22,234,39*76
$GPGSV,2,2,08,05,75,050,45,06,10,300,40,07,52,145,38,08,35,200,44*75
$GPRMC,130840.000,A,3116.62428,N,12111.62612,E,0.4141468656,0.0,050226,,,A*50
$GPGGA,130840.000,3116.62428,N,12111.62612,E,1,10,0.9,0.0,M,0.0,M,,*66
$GPGSV,2,1,08,01,40,083,41,02,17,023,43,03,30,110,42,04,22,234,39*76
$GPGSV,2,2,08,05,75,050,45,06,10,300,40,07,52,145,38,08,35,200,44*75
$GPRMC,130840.040,A,3116.62427,N,12111.62613,E,0.4821814224,0.0,050226,,,A*53
$GPGGA,130840.040,3116.62427,N,12111.62613,E,1,10,0.9,0.0,M,0.0,M,,*6C
$GPGSV,2,1,08,01,40,083,41,02,17,023,43,03,30,110,42,04,22,234,39*76
$GPGSV,2,2,08,05,75,050,45,06,10,300,40,07,52,145,38,08,35,200,44*75
$GPRMC,130840.080,A,3116.62425,N,12111.62613,E,0.5113390896,0.0,050226,,,A*50
$GPGGA,130840.080,3116.62425,N,12111.62613,E,1,10,0.9,0.0,M,0.0,M,,*62
$GPGSV,2,1,08,01,40,083,41,02,17,023,43,03,30,110,42,04,22,234,39*76
$GPGSV,2,2,08,05,75,050,45,06,10,300,40,07,52,145,38,08,35,200,44*75
$GPRMC,130840.080,A,3116.62425,N,12111.62613,E,0.5113390896,0.0,050226,,,A*50
$GPGGA,130840.080,3116.62425,N,12111.62613,E,1,10,0.9,0.0,M,0.0,M,,*62
$GPGSV,2,1,08,01,40,083,41,02,17,023,43,03,30,110,42,04,22,234,39*76
$GPGSV,2,2,08,05,75,050,45,06,10,300,40,07,52,145,38,08,35,200,44*75
$GPRMC,130840.120,A,3116.62425,N,12111.62613,E,0.5421166272,0.0,050226,,,A*54
$GPGGA,130840.120,3116.62425,N,12111.62613,E,1,10,0.9,0.0,M,0.0,M,,*69
$GPGSV,2,1,08,01,40,083,41,02,17,023,43,03,30,110,42,04,22,234,39*76
$GPGSV,2,2,08,05,75,050,45,06,10,300,40,07,52,145,38,08,35,200,44*75
$GPRMC,130840.160,A,3116.62425,N,12111.62613,E,0.5226781824,0.0,050226,,,A*57
$GPGGA,130840.160,3116.62425,N,12111.62613,E,1,10,0.9,0.0,M,0.0,M,,*6D
$GPGSV,2,1,08,01,40,083,41,02,17,023,43,03,30,110,42,04,22,234,39*76
$GPGSV,2,2,08,05,75,050,45,06,10,300,40,07,52,145,38,08,35,200,44*75
$GPRMC,130840.200,A,3116.62425,N,12111.62612,E,0.45896328,0.0,050226,,,A*5F
$GPGGA,130840.200,3116.62425,N,12111.62612,E,1,10,0.9,0.0,M,0.0,M,,*69
$GPGSV,2,1,08,01,40,083,41,02,17,023,43,03,30,110,42,04,22,234,39*76
$GPGSV,2,2,08,05,75,050,45,06,10,300,40,07,52,145,38,08,35,200,44*75
$GPRMC,130840.240,A,3116.62424,N,12111.62613,E,0.48974081760000004,0.0,050226,,,A*6E
$GPGGA,130840.240,3116.62424,N,12111.62613,E,1,10,0.9,0.0,M,0.0,M,,*6D
$GPGSV,2,1,08,01,40,083,41,02,17,023,43,03,30,110,42,04,22,234,39*76
$GPGSV,2,2,08,05,75,050,45,06,10,300,40,07,52,145,38,08,35,200,44*75
$GPRMC,130840.280,A,3116.62422,N,12111.62613,E,0.5518358496,0.0,050226,,,A*52
$GPGGA,130840.280,3116.62422,N,12111.62613,E,1,10,0.9,0.0,M,0.0,M,,*67
$GPGSV,2,1,08,01,40,083,41,02,17,023,43,03,30,110,42,04,22,234,39*76
$GPGSV,2,2,08,05,75,050,45,06,10,300,40,07,52,145,38,08,35,200,44*75
$GPRMC,130840.280,A,3116.62422,N,12111.62613,E,0.5518358496,0.0,050226,,,A*52
$GPGGA,130840.280,3116.62422,N,12111.62613,E,1,10,0.9,0.0,M,0.0,M,,*67
$GPGSV,2,1,08,01,40,083,41,02,17,023,43,03,30,110,42,04,22,234,39*76
$GPGSV,2,2,08,05,75,050,45,06,10,300,40,07,52,145,38,08,35,200,44*75
$GPRMC,130840.320,A,3116.62421,N,12111.62613,E,0.6123110112,0.0,050226,,,A*52
$GPGGA,130840.320,3116.62421,N,12111.62613,E,1,10,0.9,0.0,M,0.0,M,,*6F
$GPGSV,2,1,08,01,40,083,41,02,17,023,43,03,30,110,42,04,22,234,39*76
$GPGSV,2,2,08,05,75,050,45,06,10,300,40,07,52,145,38,08,35,200,44*75
$GPRMC,130840.360,A,3116.62420,N,12111.62613,E,0.6241900608,0.0,050226,,,A*55
$GPGGA,130840.360,3116.62420,N,12111.62613,E,1,10,0.9,0.0,M,0.0,M,,*6A
$GPGSV,2,1,08,01,40,083,41,02,17,023,43,03,30,110,42,04,22,234,39*76
$GPGSV,2,2,08,05,75,050,45,06,10,300,40,07,52,145,38,08,35,200,44*75
$GPRMC,130840.400,A,3116.62419,N,12111.62613,E,0.6549675984000001,0.0,050226,,,A*56
$GPGGA,130840.400,3116.62419,N,12111.62613,E,1,10,0.9,0.0,M,0.0,M,,*61
$GPGSV,2,1,08,01,40,083,41,02,17,023,43,03,30,110,42,04,22,234,39*76
$GPGSV,2,2,08,05,75,050,45,06,10,300,40,07,52,145,38,08,35,200,44*75
$GPRMC,130840.400,A,3116.62419,N,12111.62613,E,0.6549675984000001,0.0,050226,,,A*56
$GPGGA,130840.400,3116.62419,N,12111.62613,E,1,10,0.9,0.0,M,0.0,M,,*61
$GPGSV,2,1,08,01,40,083,41,02,17,023,43,03,30,110,42,04,22,234,39*76
$GPGSV,2,2,08,05,75,050,45,06,10,300,40,07,52,145,38,08,35,200,44*75
$GPRMC,130840.440,A,3116.62418,N,12111.62613,E,0.7348812048,0.0,050226,,,A*52
$GPGGA,130840.440,3116.62418,N,12111.62613,E,1,10,0.9,0.0,M,0.0,M,,*64
$GPGSV,2,1,08,01,40,083,41,02,17,023,43,03,30,110,42,04,22,234,39*76
$GPGSV,2,2,08,05,75,050,45,06,10,300,40,07,52,145,38,08,35,200,44*75
$GPRMC,130840.480,A,3116.62416,N,12111.62612,E,0.812634984,0.0,050226,,,A*61
$GPGGA,130840.480,3116.62416,N,12111.62612,E,1,10,0.9,0.0,M,0.0,M,,*67
$GPGSV,2,1,08,01,40,083,41,02,17,023,43,03,30,110,42,04,22,234,39*76
$GPGSV,2,2,08,05,75,050,45,06,10,300,40,07,52,145,38,08,35,200,44*75
$GPRMC,130840.520,A,3116.62414,N,12111.62612,E,0.9292656528000001,0.0,050226,,,A*5C
$GPGGA,130840.520,3116.62414,N,12111.62612,E,1,10,0.9,0.0,M,0.0,M,,*6E
$GPGSV,2,1,08,01,40,083,41,02,17,023,43,03,30,110,42,04,22,234,39*76
$GPGSV,2,2,08,05,75,050,45,06,10,300,40,07,52,145,38,08,35,200,44*75
$GPRMC,130840.560,A,3116.62411,N,12111.62612,E,1.0518358464,0.0,050226,,,A*53
$GPGGA,130840.560,3116.62411,N,12111.62612,E,1,10,0.9,0.0,M,0.0,M,,*6F
$GPGSV,2,1,08,01,40,083,41,02,17,023,43,03,30,110,42,04,22,234,39*76
$GPGSV,2,2,08,05,75,050,45,06,10,300,40,07,52,145,38,08,35,200,44*75
$GPRMC,130840.600,A,3116.62408,N,12111.62612,E,1.2305615472,0.0,050226,,,A*5D
$GPGGA,130840.600,3116.62408,N,12111.62612,E,1,10,0.9,0.0,M,0.0,M,,*62
$GPGSV,2,1,08,01,40,083,41,02,17,023,43,03,30,110,42,04,22,234,39*76
$GPGSV,2,2,08,05,75,050,45,06,10,300,40,07,52,145,38,08,35,200,44*75
$GPRMC,130840.640,A,3116.62405,N,12111.62613,E,1.3547516112,0.0,050226,,,A*57
$GPGGA,130840.640,3116.62405,N,12111.62613,E,1,10,0.9,0.0,M,0.0,M,,*6A
$GPGSV,2,1,08,01,40,083,41,02,17,023,43,03,30,110,42,04,22,234,39*76
$GPGSV,2,2,08,05,75,050,45,06,10,300,40,07,52,145,38,08,35,200,44*75
$GPRMC,130840.680,A,3116.62403,N,12111.62613,E,1.4697624096,0.0,050226,,,A*5B
$GPGGA,130840.680,3116.62403,N,12111.62613,E,1,10,0.9,0.0,M,0.0,M,,*60
$GPGSV,2,1,08,01,40,083,41,02,17,023,43,03,30,110,42,04,22,234,39*76
$GPGSV,2,2,08,05,75,050,45,06,10,300,40,07,52,145,38,08,35,200,44*75
$GPRMC,130840.720,A,3116.62400,N,12111.62613,E,1.5723542016,0.0,050226,,,A*57
$GPGGA,130840.720,3116.62400,N,12111.62613,E,1,10,0.9,0.0,M,0.0,M,,*68
$GPGSV,2,1,08,01,40,083,41,02,17,023,43,03,30,110,42,04,22,234,39*76
$GPGSV,2,2,08,05,75,050,45,06,10,300,40,07,52,145,38,08,35,200,44*75
$GPRMC,130840.760,A,3116.62397,N,12111.62613,E,1.5842332512000001,0.0,050226,,,A*53
$GPGGA,130840.760,3116.62397,N,12111.62613,E,1,10,0.9,0.0,M,0.0,M,,*65
$GPGSV,2,1,08,01,40,083,41,02,17,023,43,03,30,110,42,04,22,234,39*76
$GPGSV,2,2,08,05,75,050,45,06,10,300,40,07,52,145,38,08,35,200,44*75
$GPRMC,130840.800,A,3116.62395,N,12111.62613,E,1.5842332512000001,0.0,050226,,,A*58
$GPGGA,130840.800,3116.62395,N,12111.62613,E,1,10,0.9,0.0,M,0.0,M,,*6E
$GPGSV,2,1,08,01,40,083,41,02,17,023,43,03,30,110,42,04,22,234,39*76
$GPGSV,2,2,08,05,75,050,45,06,10,300,40,07,52,145,38,08,35,200,44*75
$GPRMC,130840.840,A,3116.62394,N,12111.62612,E,1.6290496656,0.0,050226,,,A*51
$GPGGA,130840.840,3116.62394,N,12111.62612,E,1,10,0.9,0.0,M,0.0,M,,*6A
$GPGSV,2,1,08,01,40,083,41,02,17,023,43,03,30,110,42,04,22,234,39*76
$GPGSV,2,2,08,05,75,050,45,06,10,300,40,07,52,145,38,08,35,200,44*75
$GPRMC,130840.880,A,3116.62390,N,12111.62611,E,1.7419006368,0.0,050226,,,A*59
$GPGGA,130840.880,3116.62390,N,12111.62611,E,1,10,0.9,0.0,M,0.0,M,,*61
$GPGSV,2,1,08,01,40,083,41,02,17,023,43,03,30,110,42,04,22,234,39*76
$GPGSV,2,2,08,05,75,050,45,06,10,300,40,07,52,145,38,08,35,200,44*75
$GPRMC,130840.920,A,3116.62387,N,12111.62611,E,1.8833693184,0.0,050226,,,A*55
$GPGGA,130840.920,3116.62387,N,12111.62611,E,1,10,0.9,0.0,M,0.0,M,,*6C
$GPGSV,2,1,08,01,40,083,41,02,17,023,43,03,30,110,42,04,22,234,39*76
$GPGSV,2,2,08,05,75,050,45,06,10,300,40,07,52,145,38,08,35,200,44*75
$GPRMC,130840.960,A,3116.62383,N,12111.62610,E,2.0431965312,0.0,050226,,,A*5A
$GPGGA,130840.960,3116.62383,N,12111.62610,E,1,10,0.9,0.0,M,0.0,M,,*6D
$GPGSV,2,1,08,01,40,083,41,02,17,023,43,03,30,110,42,04,22,234,39*76
$GPGSV,2,2,08,05,75,050,45,06,10,300,40,07,52,145,38,08,35,200,44*75
$GPRMC,130841.000,A,3116.62379,N,12111.62610,E,2.1749459904,0.0,050226,,,A*53
$GPGGA,130841.000,3116.62379,N,12111.62610,E,1,10,0.9,0.0,M,0.0,M,,*66
$GPGSV,2,1,08,01,40,083,41,02,17,023,43,03,30,110,42,04,22,234,39*76
$GPGSV,2,2,08,05,75,050,45,06,10,300,40,07,52,145,38,08,35,200,44*75
$GPRMC,130841.040,A,3116.62376,N,12111.62610,E,2.2429805472,0.0,050226,,,A*57
$GPGGA,130841.040,3116.62376,N,12111.62610,E,1,10,0.9,0.0,M,0.0,M,,*6D
$GPGSV,2,1,08,01,40,083,41,02,17,023,43,03,30,110,42,04,22,234,39*76
$GPGSV,2,2,08,05,75,050,45,06,10,300,40,07,52,145,38,08,35,200,44*75
$GPRMC,130841.080,A,3116.62373,N,12111.62610,E,2.2257019296,0.0,050226,,,A*58
$GPGGA,130841.080,3116.62373,N,12111.62610,E,1,10,0.9,0.0,M,0.0,M,,*64
$GPGSV,2,1,08,01,40,083,41,02,17,023,43,03,30,110,42,04,22,234,39*76
$GPGSV,2,2,08,05,75,050,45,06,10,300,40,07,52,145,38,08,35,200,44*75
$GPRMC,130841.120,A,3116.62370,N,12111.62610,E,2.270518344,0.0,050226,,,A*6D
$GPGGA,130841.120,3116.62370,N,12111.62610,E,1,10,0.9,0.0,M,0.0,M,,*6C
$GPGSV,2,1,08,01,40,083,41,02,17,023,43,03,30,110,42,04,22,234,39*76
$GPGSV,2,2,08,05,75,050,45,06,10,300,40,07,52,145,38,08,35,200,44*75
$GPRMC,130841.160,A,3116.62368,N,12111.62609,E,2.3072354064,0.0,050226,,,A*54
$GPGGA,130841.160,3116.62368,N,12111.62609,E,1,10,0.9,0.0,M,0.0,M,,*69
$GPGSV,2,1,08,01,40,083,41,02,17,023,43,03,30,110,42,04,22,234,39*76
$GPGSV,2,2,08,05,75,050,45,06,10,300,40,07,52,145,38,08,35,200,44*75
$GPRMC,130841.200,A,3116.62364,N,12111.62609,E,2.3752699632,0.0,050226,,,A*59
$GPGGA,130841.200,3116.62364,N,12111.62609,E,1,10,0.9,0.0,M,0.0,M,,*60
$GPGSV,2,1,08,01,40,083,41,02,17,023,43,03,30,110,42,04,22,234,39*76
$GPGSV,2,2,08,05,75,050,45,06,10,300,40,07,52,145,38,08,35,200,44*75
$GPRMC,130841.240,A,3116.62361,N,12111.62609,E,2.4978401568,0.0,050226,,,A*56
$GPGGA,130841.240,3116.62361,N,12111.62609,E,1,10,0.9,0.0,M,0.0,M,,*61
$GPGSV,2,1,08,01,40,083,41,02,17,023,43,03,30,110,42,04,22,234,39*76
$GPGSV,2,2,08,05,75,050,45,06,10,300,40,07,52,145,38,08,35,200,44*75
$GPRMC,130841.280,A,3116.62356,N,12111.62608,E,2.6123109984,0.0,050226,,,A*58
$GPGGA,130841.280,3116.62356,N,12111.62608,E,1,10,0.9,0.0,M,0.0,M,,*68
$GPGSV,2,1,08,01,40,083,41,02,17,023,43,03,30,110,42,04,22,234,39*76
$GPGSV,2,2,08,05,75,050,45,06,10,300,40,07,52,145,38,08,35,200,44*75
$GPRMC,130841.280,A,3116.62356,N,12111.62608,E,2.6123109984,0.0,050226,,,A*58
$GPGGA,130841.280,3116.62356,N,12111.62608,E,1,10,0.9,0.0,M,0.0,M,,*68
$GPGSV,2,1,08,01,40,083,41,02,17,023,43,03,30,110,42,04,22,234,39*76
$GPGSV,2,2,08,05,75,050,45,06,10,300,40,07,52,145,38,08,35,200,44*75
$GPRMC,130841.320,A,3116.62351,N,12111.62608,E,2.7526997664,0.0,050226,,,A*5A
$GPGGA,130841.320,3116.62351,N,12111.62608,E,1,10,0.9,0.0,M,0.0,M,,*64
$GPGSV,2,1,08,01,40,083,41,02,17,023,43,03,30,110,42,04,22,234,39*76
$GPGSV,2,2,08,05,75,050,45,06,10,300,40,07,52,145,38,08,35,200,44*75
$GPRMC,130841.360,A,3116.62347,N,12111.62607,E,2.8498919903999997,0.0,050226,,,A*5B
$GPGGA,130841.360,3116.62347,N,12111.62607,E,1,10,0.9,0.0,M,0.0,M,,*68
$GPGSV,2,1,08,01,40,083,41,02,17,023,43,03,30,110,42,04,22,234,39*76
$GPGSV,2,2,08,05,75,050,45,06,10,300,40,07,52,145,38,08,35,200,44*75
$GPRMC,130841.400,A,3116.62343,N,12111.62606,E,2.92926564,0.0,050226,,,A*56
$GPGGA,130841.400,3116.62343,N,12111.62606,E,1,10,0.9,0.0,M,0.0,M,,*6C
$GPGSV,2,1,08,01,40,083,41,02,17,023,43,03,30,110,42,04,22,234,39*76
$GPGSV,2,2,08,05,75,050,45,06,10,300,40,07,52,145,38,08,35,200,44*75
$GPRMC,130841.440,A,3116.62338,N,12111.62606,E,3.048056136,0.0,050226,,,A*65
$GPGGA,130841.440,3116.62338,N,12111.62606,E,1,10,0.9,0.0,M,0.0,M,,*64
$GPGSV,2,1,08,01,40,083,41,02,17,023,43,03,30,110,42,04,22,234,39*76
$GPGSV,2,2,08,05,75,050,45,06,10,300,40,07,52,145,38,08,35,200,44*75
$GPRMC,130841.480,A,3116.62332,N,12111.62605,E,3.1900647744,0.0,050226,,,A*51
$GPGGA,130841.480,3116.62332,N,12111.62605,E,1,10,0.9,0.0,M,0.0,M,,*61
$GPGSV,2,1,08,01,40,083,41,02,17,023,43,03,30,110,42,04,22,234,39*76
$GPGSV,2,2,08,05,75,050,45,06,10,300,40,07,52,145,38,08,35,200,44*75
$GPRMC,130841.520,A,3116.62328,N,12111.62604,E,3.318034536,0.0,050226,,,A*67
$GPGGA,130841.520,3116.62328,N,12111.62604,E,1,10,0.9,0.0,M,0.0,M,,*60
$GPGSV,2,1,08,01,40,083,41,02,17,023,43,03,30,110,42,04,22,234,39*76
$GPGSV,2,2,08,05,75,050,45,06,10,300,40,07,52,145,38,08,35,200,44*75
$GPRMC,130841.560,A,3116.62322,N,12111.62604,E,3.4427645568000003,0.0,050226,,,A*5E
$GPGGA,130841.560,3116.62322,N,12111.62604,E,1,10,0.9,0.0,M,0.0,M,,*6E
$GPGSV,2,1,08,01,40,083,41,02,17,023,43,03,30,110,42,04,22,234,39*76
$GPGSV,2,2,08,05,75,050,45,06,10,300,40,07,52,145,38,08,35,200,44*75
$GPRMC,130841.600,A,3116.62317,N,12111.62603,E,3.5221382063999997,0.0,050226,,,A*56
$GPGGA,130841.600,3116.62317,N,12111.62603,E,1,10,0.9,0.0,M,0.0,M,,*6A
$GPGSV,2,1,08,01,40,083,41,02,17,023,43,03,30,110,42,04,22,234,39*76
$GPGSV,2,2,08,05,75,050,45,06,10,300,40,07,52,145,38,08,35,200,44*75
$GPRMC,130841.600,A,3116.62317,N,12111.62603,E,3.5221382063999997,0.0,050226,,,A*56
$GPGGA,130841.600,3116.62317,N,12111.62603,E,1,10,0.9,0.0,M,0.0,M,,*6A
$GPGSV,2,1,08,01,40,083,41,02,17,023,43,03,30,110,42,04,22,234,39*76
$GPGSV,2,2,08,05,75,050,45,06,10,300,40,07,52,145,38,08,35,200,44*75
$GPRMC,130841.640,A,3116.62314,N,12111.62601,E,3.5048595888,0.0,050226,,,A*5D
$GPGGA,130841.640,3116.62314,N,12111.62601,E,1,10,0.9,0.0,M,0.0,M,,*6F
$GPGSV,2,1,08,01,40,083,41,02,17,023,43,03,30,110,42,04,22,234,39*76
$GPGSV,2,2,08,05,75,050,45,06,10,300,40,07,52,145,38,08,35,200,44*75
$GPRMC,130841.680,A,3116.62310,N,12111.62601,E,3.4892008415999998,0.0,050226,,,A*53
$GPGGA,130841.680,3116.62310,N,12111.62601,E,1,10,0.9,0.0,M,0.0,M,,*67
$GPGSV,2,1,08,01,40,083,41,02,17,023,43,03,30,110,42,04,22,234,39*76
$GPGSV,2,2,08,05,75,050,45,06,10,300,40,07,52,145,38,08,35,200,44*75
$GPRMC,130841.720,A,3116.62305,N,12111.62600,E,3.5318574288000004,0.0,050226,,,A*5C
$GPGGA,130841.720,3116.62305,N,12111.62600,E,1,10,0.9,0.0,M,0.0,M,,*69
$GPGSV,2,1,08,01,40,083,41,02,17,023,43,03,30,110,42,04,22,234,39*76
$GPGSV,2,2,08,05,75,050,45,06,10,300,40,07,52,145,38,08,35,200,44*75
$GPRMC,130841.720,A,3116.62305,N,12111.62600,E,3.5318574288000004,0.0,050226,,,A*5C
$GPGGA,130841.720,3116.62305,N,12111.62600,E,1,10,0.9,0.0,M,0.0,M,,*69
$GPGSV,2,1,08,01,40,083,41,02,17,023,43,03,30,110,42,04,22,234,39*76
$GPGSV,2,2,08,05,75,050,45,06,10,300,40,07,52,145,38,08,35,200,44*75
$GPRMC,130841.760,A,3116.62301,N,12111.62599,E,3.6036716832000004,0.0,050226,,,A*5E
$GPGGA,130841.760,3116.62301,N,12111.62599,E,1,10,0.9,0.0,M,0.0,M,,*6A
$GPGSV,2,1,08,01,40,083,41,02,17,023,43,03,30,110,42,04,22,234,39*76
$GPGSV,2,2,08,05,75,050,45,06,10,300,40,07,52,145,38,08,35,200,44*75
$GPRMC,130841.800,A,3116.62297,N,12111.62598,E,3.623110128,0.0,050226,,,A*6A
$GPGGA,130841.800,3116.62297,N,12111.62598,E,1,10,0.9,0.0,M,0.0,M,,*6C
$GPGSV,2,1,08,01,40,083,41,02,17,023,43,03,30,110,42,04,22,234,39*76
$GPGSV,2,2,08,05,75,050,45,06,10,300,40,07,52,145,38,08,35,200,44*75
$GPRMC,130841.840,A,3116.62292,N,12111.62597,E,3.6814254624,0.0,050226,,,A*50
$GPGGA,130841.840,3116.62292,N,12111.62597,E,1,10,0.9,0.0,M,0.0,M,,*62
$GPGSV,2,1,08,01,40,083,41,02,17,023,43,03,30,110,42,04,22,234,39*76
$GPGSV,2,2,08,05,75,050,45,06,10,300,40,07,52,145,38,08,35,200,44*75
$GPRMC,130841.880,A,3116.62287,N,12111.62596,E,3.7186824815999997,0.0,050226,,,A*55
$GPGGA,130841.880,3116.62287,N,12111.62596,E,1,10,0.9,0.0,M,0.0,M,,*6B
$GPGSV,2,1,08,01,40,083,41,02,17,023,43,03,30,110,42,04,22,234,39*76
$GPGSV,2,2,08,05,75,050,45,06,10,300,40,07,52,145,38,08,35,200,44*75
$GPRMC,130841.920,A,3116.62283,N,12111.62596,E,3.7748379888,0.0,050226,,,A*57
$GPGGA,130841.920,3116.62283,N,12111.62596,E,1,10,0.9,0.0,M,0.0,M,,*64
$GPGSV,2,1,08,01,40,083,41,02,17,023,43,03,30,110,42,04,22,234,39*76
$GPGSV,2,2,08,05,75,050,45,06,10,300,40,07,52,145,38,08,35,200,44*75
$GPRMC,130841.960,A,3116.62278,N,12111.62595,E,3.8412526752000002,0.0,050226,,,A*51
$GPGGA,130841.960,3116.62278,N,12111.62595,E,1,10,0.9,0.0,M,0.0,M,,*67
$GPGSV,2,1,08,01,40,083,41,02,17,023,43,03,30,110,42,04,22,234,39*76
$GPGSV,2,2,08,05,75,050,45,06,10,300,40,07,52,145,38,08,35,200,44*75
$GPRMC,130842.000,A,3116.62272,N,12111.62594,E,3.8974081824,0.0,050226,,,A*5F
$GPGGA,130842.000,3116.62272,N,12111.62594,E,1,10,0.9,0.0,M,0.0,M,,*60
$GPGSV,2,1,08,01,40,083,41,02,17,023,43,03,30,110,42,04,22,234,39*76
$GPGSV,2,2,08,05,75,050,45,06,10,300,40,07,52,145,38,08,35,200,44*75
$GPRMC,130842.040,A,3116.62268,N,12111.62593,E,3.9497839920000004,0.0,050226,,,A*5C
$GPGGA,130842.040,3116.62268,N,12111.62593,E,1,10,0.9,0.0,M,0.0,M,,*68
$GPGSV,2,1,08,01,40,083,41,02,17,023,43,03,30,110,42,04,22,234,39*76
$GPGSV,2,2,08,05,75,050,45,06,10,300,40,07,52,145,38,08,35,200,44*75
$GPRMC,130842.040,A,3116.62268,N,12111.62593,E,3.9497839920000004,0.0,050226,,,A*5C
$GPGGA,130842.040,3116.62268,N,12111.62593,E,1,10,0.9,0.0,M,0.0,M,,*68
$GPGSV,2,1,08,01,40,083,41,02,17,023,43,03,30,110,42,04,22,234,39*76
$GPGSV,2,2,08,05,75,050,45,06,10,300,40,07,52,145,38,08,35,200,44*75
$GPRMC,130842.080,A,3116.62262,N,12111.62591,E,4.033477296,0.0,050226,,,A*68
$GPGGA,130842.080,3116.62262,N,12111.62591,E,1,10,0.9,0.0,M,0.0,M,,*6C
$GPGSV,2,1,08,01,40,083,41,02,17,023,43,03,30,110,42,04,22,234,39*76
$GPGSV,2,2,08,05,75,050,45,06,10,300,40,07,52,145,38,08,35,200,44*75
$GPRMC,130842.120,A,3116.62257,N,12111.62591,E,4.0782937104,0.0,050226,,,A*59
$GPGGA,130842.120,3116.62257,N,12111.62591,E,1,10,0.9,0.0,M,0.0,M,,*61
$GPGSV,2,1,08,01,40,083,41,02,17,023,43,03,30,110,42,04,22,234,39*76
$GPGSV,2,2,08,05,75,050,45,06,10,300,40,07,52,145,38,08,35,200,44*75
$GPRMC,130842.160,A,3116.62253,N,12111.62590,E,4.1285096928,0.0,050226,,,A*5F
$GPGGA,130842.160,3116.62253,N,12111.62590,E,1,10,0.9,0.0,M,0.0,M,,*60
$GPGSV,2,1,08,01,40,083,41,02,17,023,43,03,30,110,42,04,22,234,39*76
$GPGSV,2,2,08,05,75,050,45,06,10,300,40,07,52,145,38,08,35,200,44*75
$GPRMC,130842.200,A,3116.62247,N,12111.62588,E,4.2084232992,0.0,050226,,,A*5B
$GPGGA,130842.200,3116.62247,N,12111.62588,E,1,10,0.9,0.0,M,0.0,M,,*69
$GPGSV,2,1,08,01,40,083,41,02,17,023,43,03,30,110,42,04,22,234,39*76
$GPGSV,2,2,08,05,75,050,45,06,10,300,40,07,52,145,38,08,35,200,44*75
$GPRMC,130842.240,A,3116.62241,N,12111.62586,E,4.2786176832,0.0,050226,,,A*5A
$GPGGA,130842.240,3116.62241,N,12111.62586,E,1,10,0.9,0.0,M,0.0,M,,*65
$GPGSV,2,1,08,01,40,083,41,02,17,023,43,03,30,110,42,04,22,234,39*76
$GPGSV,2,2,08,05,75,050,45,06,10,300,40,07,52,145,38,08,35,200,44*75
$GPRMC,130842.280,A,3116.62235,N,12111.62586,E,4.3617710304,0.0,050226,,,A*55
$GPGGA,130842.280,3116.62235,N,12111.62586,E,1,10,0.9,0.0,M,0.0,M,,*6A
$GPGSV,2,1,08,01,40,083,41,02,17,023,43,03,30,110,42,04,22,234,39*76
$GPGSV,2,2,08,05,75,050,45,06,10,300,40,07,52,145,38,08,35,200,44*75
$GPRMC,130842.320,A,3116.62230,N,12111.62585,E,4.3812094752,0.0,050226,,,A*5F
$GPGGA,130842.320,3116.62230,N,12111.62585,E,1,10,0.9,0.0,M,0.0,M,,*67
$GPGSV,2,1,08,01,40,083,41,02,17,023,43,03,30,110,42,04,22,234,39*76
$GPGSV,2,2,08,05,75,050,45,06,10,300,40,07,52,145,38,08,35,200,44*75
$GPRMC,130842.360,A,3116.62224,N,12111.62583,E,4.4454643344,0.0,050226,,,A*5E
$GPGGA,130842.360,3116.62224,N,12111.62583,E,1,10,0.9,0.0,M,0.0,M,,*60
$GPGSV,2,1,08,01,40,083,41,02,17,023,43,03,30,110,42,04,22,234,39*76
$GPGSV,2,2,08,05,75,050,45,06,10,300,40,07,52,145,38,08,35,200,44*75
$GPRMC,130842.400,A,3116.62218,N,12111.62582,E,4.5620950032,0.0,050226,,,A*5E
$GPGGA,130842.400,3116.62218,N,12111.62582,E,1,10,0.9,0.0,M,0.0,M,,*6F
$GPGSV,2,1,08,01,40,083,41,02,17,023,43,03,30,110,42,04,22,234,39*76
$GPGSV,2,2,08,05,75,050,45,06,10,300,40,07,52,145,38,08,35,200,44*75
$GPRMC,130842.440,A,3116.62212,N,12111.62580,E,4.64362848,0.0,050226,,,A*5F
$GPGGA,130842.440,3116.62212,N,12111.62580,E,1,10,0.9,0.0,M,0.0,M,,*63
$GPGSV,2,1,08,01,40,083,41,02,17,023,43,03,30,110,42,04,22,234,39*76
$GPGSV,2,2,08,05,75,050,45,06,10,300,40,07,52,145,38,08,35,200,44*75
$GPRMC,130842.480,A,3116.62205,N,12111.62579,E,4.7699783712,0.0,050226,,,A*5B
$GPGGA,130842.480,3116.62205,N,12111.62579,E,1,10,0.9,0.0,M,0.0,M,,*6F
$GPGSV,2,1,08,01,40,083,41,02,17,023,43,03,30,110,42,04,22,234,39*76
$GPGSV,2,2,08,05,75,050,45,06,10,300,40,07,52,145,38,08,35,200,44*75
$GPRMC,130842.520,A,3116.62197,N,12111.62577,E,4.908207312,0.0,050226,,,A*6B
$GPGGA,130842.520,3116.62197,N,12111.62577,E,1,10,0.9,0.0,M,0.0,M,,*62
$GPGSV,2,1,08,01,40,083,41,02,17,023,43,03,30,110,42,04,22,234,39*76
$GPGSV,2,2,08,05,75,050,45,06,10,300,40,07,52,145,38,08,35,200,44*75
$GPRMC,130842.560,A,3116.62190,N,12111.62576,E,5.030777505600001,0.0,050226,,,A*6F
$GPGGA,130842.560,3116.62190,N,12111.62576,E,1,10,0.9,0.0,M,0.0,M,,*60
$GPGSV,2,1,08,01,40,083,41,02,17,023,43,03,30,110,42,04,22,234,39*76
$GPGSV,2,2,08,05,75,050,45,06,10,300,40,07,52,145,38,08,35,200,44*75
$GPRMC,130842.600,A,3116.62182,N,12111.62575,E,5.1900647616,0.0,050226,,,A*55
$GPGGA,130842.600,3116.62182,N,12111.62575,E,1,10,0.9,0.0,M,0.0,M,,*65
$GPGSV,2,1,08,01,40,083,41,02,17,023,43,03,30,110,42,04,22,234,39*76
$GPGSV,2,2,08,05,75,050,45,06,10,300,40,07,52,145,38,08,35,200,44*75
$GPRMC,130842.640,A,3116.62176,N,12111.62574,E,5.1938444592,0.0,050226,,,A*5E
$GPGGA,130842.640,3116.62176,N,12111.62574,E,1,10,0.9,0.0,M,0.0,M,,*6B
$GPGSV,2,1,08,01,40,083,41,02,17,023,43,03,30,110,42,04,22,234,39*76
$GPGSV,2,2,08,05,75,050,45,06,10,300,40,07,52,145,38,08,35,200,44*75
$GPRMC,130842.680,A,3116.62170,N,12111.62573,E,5.2462202688,0.0,050226,,,A*5E
$GPGGA,130842.680,3116.62170,N,12111.62573,E,1,10,0.9,0.0,M,0.0,M,,*66
$GPGSV,2,1,08,01,40,083,41,02,17,023,43,03,30,110,42,04,22,234,39*76
$GPGSV,2,2,08,05,75,050,45,06,10,300,40,07,52,145,38,08,35,200,44*75
$GPRMC,130842.720,A,3116.62163,N,12111.62571,E,5.3709502896,0.0,050226,,,A*5C
$GPGGA,130842.720,3116.62163,N,12111.62571,E,1,10,0.9,0.0,M,0.0,M,,*6D
$GPGSV,2,1,08,01,40,083,41,02,17,023,43,03,30,110,42,04,22,234,39*76
$GPGSV,2,2,08,05,75,050,45,06,10,300,40,07,52,145,38,08,35,200,44*75
$GPRMC,130842.720,A,3116.62163,N,12111.62571,E,5.3709502896,0.0,050226,,,A*5C
$GPGGA,130842.720,3116.62163,N,12111.62571,E,1,10,0.9,0.0,M,0.0,M,,*6D
$GPGSV,2,1,08,01,40,083,41,02,17,023,43,03,30,110,42,04,22,234,39*76
$GPGSV,2,2,08,05,75,050,45,06,10,300,40,07,52,145,38,08,35,200,44*75
$GPRMC,130842.760,A,3116.62154,N,12111.62570,E,5.4989200512,0.0,050226,,,A*58
$GPGGA,130842.760,3116.62154,N,12111.62570,E,1,10,0.9,0.0,M,0.0,M,,*6C
$GPGSV,2,1,08,01,40,083,41,02,17,023,43,03,30,110,42,04,22,234,39*76
$GPGSV,2,2,08,05,75,050,45,06,10,300,40,07,52,145,38,08,35,200,44*75
$GPRMC,130842.800,A,3116.62148,N,12111.62568,E,5.563174910400001,0.0,050226,,,A*62
$GPGGA,130842.800,3116.62148,N,12111.62568,E,1,10,0.9,0.0,M,0.0,M,,*61
$GPGSV,2,1,08,01,40,083,41,02,17,023,43,03,30,110,42,04,22,234,39*76
$GPGSV,2,2,08,05,75,050,45,06,10,300,40,07,52,145,38,08,35,200,44*75
$GPRMC,130842.840,A,3116.62140,N,12111.62566,E,5.6117710224,0.0,050226,,,A*5C
$GPGGA,130842.840,3116.62140,N,12111.62566,E,1,10,0.9,0.0,M,0.0,M,,*63
$GPGSV,2,1,08,01,40,083,41,02,17,023,43,03,30,110,42,04,22,234,39*76
$GPGSV,2,2,08,05,75,050,45,06,10,300,40,07,52,145,38,08,35,200,44*75
$GPRMC,130842.880,A,3116.62134,N,12111.62565,E,5.6587472640000005,0.0,050226,,,A*59
$GPGGA,130842.880,3116.62134,N,12111.62565,E,1,10,0.9,0.0,M,0.0,M,,*6F
$GPGSV,2,1,08,01,40,083,41,02,17,023,43,03,30,110,42,04,22,234,39*76
$GPGSV,2,2,08,05,75,050,45,06,10,300,40,07,52,145,38,08,35,200,44*75
$GPRMC,130842.920,A,3116.62127,N,12111.62563,E,5.708963246400001,0.0,050226,,,A*6A
$GPGGA,130842.920,3116.62127,N,12111.62563,E,1,10,0.9,0.0,M,0.0,M,,*60
$GPGSV,2,1,08,01,40,083,41,02,17,023,43,03,30,110,42,04,22,234,39*76
$GPGSV,2,2,08,05,75,050,45,06,10,300,40,07,52,145,38,08,35,200,44*75
$GPRMC,130842.960,A,3116.62119,N,12111.62561,E,5.769438408,0.0,050226,,,A*6C
$GPGGA,130842.960,3116.62119,N,12111.62561,E,1,10,0.9,0.0,M,0.0,M,,*6B
$GPGSV,2,1,08,01,40,083,41,02,17,023,43,03,30,110,42,04,22,234,39*76
$GPGSV,2,2,08,05,75,050,45,06,10,300,40,07,52,145,38,08,35,200,44*75
$GPRMC,130843.000,A,3116.62111,N,12111.62559,E,5.9190064416,0.0,050226,,,A*5A
$GPGGA,130843.000,3116.62111,N,12111.62559,E,1,10,0.9,0.0,M,0.0,M,,*66
$GPGSV,2,1,08,01,40,083,41,02,17,023,43,03,30,110,42,04,22,234,39*76
$GPGSV,2,2,08,05,75,050,45,06,10,300,40,07,52,145,38,08,35,200,44*75
$GPRMC,130843.040,A,3116.62102,N,12111.62557,E,6.0669546048,0.0,050226,,,A*53
$GPGGA,130843.040,3116.62102,N,12111.62557,E,1,10,0.9,0.0,M,0.0,M,,*6E
$GPGSV,2,1,08,01,40,083,41,02,17,023,43,03,30,110,42,04,22,234,39*76
$GPGSV,2,2,08,05,75,050,45,06,10,300,40,07,52,145,38,08,35,200,44*75
$GPRMC,130843.040,A,3116.62102,N,12111.62557,E,6.0669546048,0.0,050226,,,A*53
$GPGGA,130843.040,3116.62102,N,12111.62557,E,1,10,0.9,0.0,M,0.0,M,,*6E
$GPGSV,2,1,08,01,40,083,41,02,17,023,43,03,30,110,42,04,22,234,39*76
$GPGSV,2,2,08,05,75,050,45,06,10,300,40,07,52,145,38,08,35,200,44*75
$GPRMC,130843.080,A,3116.62093,N,12111.62555,E,6.2046435888,0.0,050226,,,A*5C
$GPGGA,130843.080,3116.62093,N,12111.62555,E,1,10,0.9,0.0,M,0.0,M,,*69
$GPGSV,2,1,08,01,40,083,41,02,17,023,43,03,30,110,42,04,22,234,39*76
$GPGSV,2,2,08,05,75,050,45,06,10,300,40,07,52,145,38,08,35,200,44*75
$GPRMC,130843.120,A,3116.62085,N,12111.62553,E,6.3331533072,0.0,050226,,,A*5E
$GPGGA,130843.120,3116.62085,N,12111.62553,E,1,10,0.9,0.0,M,0.0,M,,*63
$GPGSV,2,1,08,01,40,083,41,02,17,023,43,03,30,110,42,04,22,234,39*76
$GPGSV,2,2,08,05,75,050,45,06,10,300,40,07,52,145,38,08,35,200,44*75
$GPRMC,130843.160,A,3116.62077,N,12111.62551,E,6.3893088144000005,0.0,050226,,,A*52
$GPGGA,130843.160,3116.62077,N,12111.62551,E,1,10,0.9,0.0,M,0.0,M,,*68
$GPGSV,2,1,08,01,40,083,41,02,17,023,43,03,30,110,42,04,22,234,39*76
$GPGSV,2,2,08,05,75,050,45,06,10,300,40,07,52,145,38,08,35,200,44*75
$GPRMC,130843.200,A,3116.62068,N,12111.62549,E,6.4573433712,0.0,050226,,,A*50
$GPGGA,130843.200,3116.62068,N,12111.62549,E,1,10,0.9,0.0,M,0.0,M,,*6A
$GPGSV,2,1,08,01,40,083,41,02,17,023,43,03,30,110,42,04,22,234,39*76
$GPGSV,2,2,08,05,75,050,45,06,10,300,40,07,52,145,38,08,35,200,44*75
$GPRMC,130843.240,A,3116.62060,N,12111.62546,E,6.544816372800001,0.0,050226,,,A*63
$GPGGA,130843.240,3116.62060,N,12111.62546,E,1,10,0.9,0.0,M,0.0,M,,*69
$GPGSV,2,1,08,01,40,083,41,02,17,023,43,03,30,110,42,04,22,234,39*76
$GPGSV,2,2,08,05,75,050,45,06,10,300,40,07,52,145,38,08,35,200,44*75
$GPRMC,130843.280,A,3116.62050,N,12111.62544,E,6.7257019008,0.0,050226,,,A*5C
$GPGGA,130843.280,3116.62050,N,12111.62544,E,1,10,0.9,0.0,M,0.0,M,,*64
$GPGSV,2,1,08,01,40,083,41,02,17,023,43,03,30,110,42,04,22,234,39*76
$GPGSV,2,2,08,05,75,050,45,06,10,300,40,07,52,145,38,08,35,200,44*75
$GPRMC,130843.320,A,3116.62040,N,12111.62542,E,6.908207299200001,0.0,050226,,,A*62
$GPGGA,130843.320,3116.62040,N,12111.62542,E,1,10,0.9,0.0,M,0.0,M,,*68
$GPGSV,2,1,08,01,40,083,41,02,17,023,43,03,30,110,42,04,22,234,39*76
$GPGSV,2,2,08,05,75,050,45,06,10,300,40,07,52,145,38,08,35,200,44*75
$GPRMC,130843.360,A,3116.62028,N,12111.62540,E,7.139848766400001,0.0,050226,,,A*63
$GPGGA,130843.360,3116.62028,N,12111.62540,E,1,10,0.9,0.0,M,0.0,M,,*60
$GPGSV,2,1,08,01,40,083,41,02,17,023,43,03,30,110,42,04,22,234,39*76
$GPGSV,2,2,08,05,75,050,45,06,10,300,40,07,52,145,38,08,35,200,44*75
$GPRMC,130843.400,A,3116.62017,N,12111.62537,E,7.3050755472,0.0,050226,,,A*53
$GPGGA,130843.400,3116.62017,N,12111.62537,E,1,10,0.9,0.0,M,0.0,M,,*6D
$GPGSV,2,1,08,01,40,083,41,02,17,023,43,03,30,110,42,04,22,234,39*76
$GPGSV,2,2,08,05,75,050,45,06,10,300,40,07,52,145,38,08,35,200,44*75
$GPRMC,130843.440,A,3116.62007,N,12111.62534,E,7.4897407728,0.0,050226,,,A*59
$GPGGA,130843.440,3116.62007,N,12111.62534,E,1,10,0.9,0.0,M,0.0,M,,*6B
$GPGSV,2,1,08,01,40,083,41,02,17,023,43,03,30,110,42,04,22,234,39*76
$GPGSV,2,2,08,05,75,050,45,06,10,300,40,07,52,145,38,08,35,200,44*75
$GPRMC,130843.440,A,3116.62007,N,12111.62534,E,7.4897407728,0.0,050226,,,A*59
$GPGGA,130843.440,3116.62007,N,12111.62534,E,1,10,0.9,0.0,M,0.0,M,,*6B
$GPGSV,2,1,08,01,40,083,41,02,17,023,43,03,30,110,42,04,22,234,39*76
$GPGSV,2,2,08,05,75,050,45,06,10,300,40,07,52,145,38,08,35,200,44*75
$GPRMC,130843.480,A,3116.61996,N,12111.62532,E,7.6565874240000005,0.0,050226,,,A*55
$GPGGA,130843.480,3116.61996,N,12111.62532,E,1,10,0.9,0.0,M,0.0,M,,*63
$GPGSV,2,1,08,01,40,083,41,02,17,023,43,03,30,110,42,04,22,234,39*76
$GPGSV,2,2,08,05,75,050,45,06,10,300,40,07,52,145,38,08,35,200,44*75
$GPRMC,130843.520,A,3116.61983,N,12111.62529,E,7.8822893664,0.0,050226,,,A*5E
$GPGGA,130843.520,3116.61983,N,12111.62529,E,1,10,0.9,0.0,M,0.0,M,,*66
$GPGSV,2,1,08,01,40,083,41,02,17,023,43,03,30,110,42,04,22,234,39*76
$GPGSV,2,2,08,05,75,050,45,06,10,300,40,07,52,145,38,08,35,200,44*75
$GPRMC,130843.560,A,3116.61969,N,12111.62526,E,8.199244008,0.0,050226,,,A*63
$GPGGA,130843.560,3116.61969,N,12111.62526,E,1,10,0.9,0.0,M,0.0,M,,*69
$GPGSV,2,1,08,01,40,083,41,02,17,023,43,03,30,110,42,04,22,234,39*76
$GPGSV,2,2,08,05,75,050,45,06,10,300,40,07,52,145,38,08,35,200,44*75
$GPRMC,130843.600,A,3116.61959,N,12111.62525,E,8.331533424,0.0,050226,,,A*6B
$GPGGA,130843.600,3116.61959,N,12111.62525,E,1,10,0.9,0.0,M,0.0,M,,*6C
$GPGSV,2,1,08,01,40,083,41,02,17,023,43,03,30,110,42,04,22,234,39*76
$GPGSV,2,2,08,05,75,050,45,06,10,300,40,07,52,145,38,08,35,200,44*75
$GPRMC,130843.640,A,3116.61948,N,12111.62522,E,8.3995679808,0.0,050226,,,A*50
$GPGGA,130843.640,3116.61948,N,12111.62522,E,1,10,0.9,0.0,M,0.0,M,,*6F
$GPGSV,2,1,08,01,40,083,41,02,17,023,43,03,30,110,42,04,22,234,39*76
$GPGSV,2,2,08,05,75,050,45,06,10,300,40,07,52,145,38,08,35,200,44*75
$GPRMC,130843.680,A,3116.61938,N,12111.62519,E,8.4870409824,0.0,050226,,,A*55
$GPGGA,130843.680,3116.61938,N,12111.62519,E,1,10,0.9,0.0,M,0.0,M,,*6C
$GPGSV,2,1,08,01,40,083,41,02,17,023,43,03,30,110,42,04,22,234,39*76
$GPGSV,2,2,08,05,75,050,45,06,10,300,40,07,52,145,38,08,35,200,44*75
$GPRMC,130843.720,A,3116.61928,N,12111.62517,E,8.5334772672,0.0,050226,,,A*59
$GPGGA,130843.720,3116.61928,N,12111.62517,E,1,10,0.9,0.0,M,0.0,M,,*68
$GPGSV,2,1,08,01,40,083,41,02,17,023,43,03,30,110,42,04,22,234,39*76
$GPGSV,2,2,08,05,75,050,45,06,10,300,40,07,52,145,38,08,35,200,44*75
$GPRMC,130843.720,A,3116.61928,N,12111.62517,E,8.5334772672,0.0,050226,,,A*59
$GPGGA,130843.720,3116.61928,N,12111.62517,E,1,10,0.9,0.0,M,0.0,M,,*68
$GPGSV,2,1,08,01,40,083,41,02,17,023,43,03,30,110,42,04,22,234,39*76
$GPGSV,2,2,08,05,75,050,45,06,10,300,40,07,52,145,38,08,35,200,44*75
$GPRMC,130843.760,A,3116.61918,N,12111.62514,E,8.5955722992,0.0,050226,,,A*54
$GPGGA,130843.760,3116.61918,N,12111.62514,E,1,10,0.9,0.0,M,0.0,M,,*6C
$GPGSV,2,1,08,01,40,083,41,02,17,023,43,03,30,110,42,04,22,234,39*76
$GPGSV,2,2,08,05,75,050,45,06,10,300,40,07,52,145,38,08,35,200,44*75
$GPRMC,130843.800,A,3116.61907,N,12111.62511,E,8.6754859056,0.0,050226,,,A*58
$GPGGA,130843.800,3116.61907,N,12111.62511,E,1,10,0.9,0.0,M,0.0,M,,*6E
$GPGSV,2,1,08,01,40,083,41,02,17,023,43,03,30,110,42,04,22,234,39*76
$GPGSV,2,2,08,05,75,050,45,06,10,300,40,07,52,145,38,08,35,200,44*75
$GPRMC,130843.840,A,3116.61896,N,12111.62507,E,8.813174889599999,0.0,050226,,,A*68
$GPGGA,130843.840,3116.61896,N,12111.62507,E,1,10,0.9,0.0,M,0.0,M,,*64
$GPGSV,2,1,08,01,40,083,41,02,17,023,43,03,30,110,42,04,22,234,39*76
$GPGSV,2,2,08,05,75,050,45,06,10,300,40,07,52,145,38,08,35,200,44*75
$GPRMC,130843.880,A,3116.61884,N,12111.62504,E,8.931965385600002,0.0,050226,,,A*62
$GPGGA,130843.880,3116.61884,N,12111.62504,E,1,10,0.9,0.0,M,0.0,M,,*68
$GPGSV,2,1,08,01,40,083,41,02,17,023,43,03,30,110,42,04,22,234,39*76
$GPGSV,2,2,08,05,75,050,45,06,10,300,40,07,52,145,38,08,35,200,44*75
$GPRMC,130843.920,A,3116.61873,N,12111.62501,E,9.0329373072,0.0,050226,,,A*54
$GPGGA,130843.920,3116.61873,N,12111.62501,E,1,10,0.9,0.0,M,0.0,M,,*6E
$GPGSV,2,1,08,01,40,083,41,02,17,023,43,03,30,110,42,04,22,234,39*76
$GPGSV,2,2,08,05,75,050,45,06,10,300,40,07,52,145,38,08,35,200,44*75
$GPRMC,130843.960,A,3116.61860,N,12111.62499,E,9.1808854704,0.0,050226,,,A*53
$GPGGA,130843.960,3116.61860,N,12111.62499,E,1,10,0.9,0.0,M,0.0,M,,*68
$GPGSV,2,1,08,01,40,083,41,02,17,023,43,03,30,110,42,04,22,234,39*76
$GPGSV,2,2,08,05,75,050,45,06,10,300,40,07,52,145,38,08,35,200,44*75
$GPRMC,130844.000,A,3116.61848,N,12111.62496,E,9.343952424,0.0,050226,,,A*6D
$GPGGA,130844.000,3116.61848,N,12111.62496,E,1,10,0.9,0.0,M,0.0,M,,*65
$GPGSV,2,1,08,01,40,083,41,02,17,023,43,03,30,110,42,04,22,234,39*76
$GPGSV,2,2,08,05,75,050,45,06,10,300,40,07,52,145,38,08,35,200,44*75
$GPRMC,130844.040,A,3116.61834,N,12111.62493,E,9.571274236799999,0.0,050226,,,A*64
$GPGGA,130844.040,3116.61834,N,12111.62493,E,1,10,0.9,0.0,M,0.0,M,,*6F
$GPGSV,2,1,08,01,40,083,41,02,17,023,43,03,30,110,42,04,22,234,39*76
$GPGSV,2,2,08,05,75,050,45,06,10,300,40,07,52,145,38,08,35,200,44*75
$GPRMC,130844.040,A,3116.61834,N,12111.62493,E,9.571274236799999,0.0,050226,,,A*64
$GPGGA,130844.040,3116.61834,N,12111.62493,E,1,10,0.9,0.0,M,0.0,M,,*6F
$GPGSV,2,1,08,01,40,083,41,02,17,023,43,03,30,110,42,04,22,234,39*76
$GPGSV,2,2,08,05,75,050,45,06,10,300,40,07,52,145,38,08,35,200,44*75
$GPRMC,130844.080,A,3116.61821,N,12111.62490,E,9.750539894400001,0.0,050226,,,A*69
$GPGGA,130844.080,3116.61821,N,12111.62490,E,1,10,0.9,0.0,M,0.0,M,,*64
$GPGSV,2,1,08,01,40,083,41,02,17,023,43,03,30,110,42,04,22,234,39*76
$GPGSV,2,2,08,05,75,050,45,06,10,300,40,07,52,145,38,08,35,200,44*75
$GPRMC,130844.120,A,3116.61807,N,12111.62487,E,9.9427645152,0.0,050226,,,A*54
$GPGGA,130844.120,3116.61807,N,12111.62487,E,1,10,0.9,0.0,M,0.0,M,,*6D
$GPGSV,2,1,08,01,40,083,41,02,17,023,43,03,30,110,42,04,22,234,39*76
$GPGSV,2,2,08,05,75,050,45,06,10,300,40,07,52,145,38,08,35,200,44*75
$GPRMC,130844.160,A,3116.61792,N,12111.62484,E,10.134989136,0.0,050226,,,A*5B
$GPGGA,130844.160,3116.61792,N,12111.62484,E,1,10,0.9,0.0,M,0.0,M,,*69
$GPGSV,2,1,08,01,40,083,41,02,17,023,43,03,30,110,42,04,22,234,39*76
$GPGSV,2,2,08,05,75,050,45,06,10,300,40,07,52,145,38,08,35,200,44*75
$GPRMC,130844.200,A,3116.61776,N,12111.62482,E,10.461663,0.0,050226,,,A*68
$GPGGA,130844.200,3116.61776,N,12111.62482,E,1,10,0.9,0.0,M,0.0,M,,*60
$GPGSV,2,1,08,01,40,083,41,02,17,023,43,03,30,110,42,04,22,234,39*76
$GPGSV,2,2,08,05,75,050,45,06,10,300,40,07,52,145,38,08,35,200,44*75
$GPRMC,130844.240,A,3116.61761,N,12111.62478,E,10.7278617024,0.0,050226,,,A*63
$GPGGA,130844.240,3116.61761,N,12111.62478,E,1,10,0.9,0.0,M,0.0,M,,*67
$GPGSV,2,1,08,01,40,083,41,02,17,023,43,03,30,110,42,04,22,234,39*76
$GPGSV,2,2,08,05,75,050,45,06,10,300,40,07,52,145,38,08,35,200,44*75
$GPRMC,130844.280,A,3116.61744,N,12111.62474,E,10.986501009600001,0.0,050226,,,A*55
$GPGGA,130844.280,3116.61744,N,12111.62474,E,1,10,0.9,0.0,M,0.0,M,,*60
$GPGSV,2,1,08,01,40,083,41,02,17,023,43,03,30,110,42,04,22,234,39*76
$GPGSV,2,2,08,05,75,050,45,06,10,300,40,07,52,145,38,08,35,200,44*75
$GPRMC,130844.320,A,3116.61728,N,12111.62471,E,11.252699712,0.0,050226,,,A*5A
$GPGGA,130844.320,3116.61728,N,12111.62471,E,1,10,0.9,0.0,M,0.0,M,,*64
$GPGSV,2,1,08,01,40,083,41,02,17,023,43,03,30,110,42,04,22,234,39*76
$GPGSV,2,2,08,05,75,050,45,06,10,300,40,07,52,145,38,08,35,200,44*75
$GPRMC,130844.320,A,3116.61728,N,12111.62471,E,11.252699712,0.0,050226,,,A*5A
$GPGGA,130844.320,3116.61728,N,12111.62471,E,1,10,0.9,0.0,M,0.0,M,,*64
$GPGSV,2,1,08,01,40,083,41,02,17,023,43,03,30,110,42,04,22,234,39*76
$GPGSV,2,2,08,05,75,050,45,06,10,300,40,07,52,145,38,08,35,200,44*75
$GPRMC,130844.360,A,3116.61714,N,12111.62468,E,11.417926492800001,0.0,050226,,,A*57
$GPGGA,130844.360,3116.61714,N,12111.62468,E,1,10,0.9,0.0,M,0.0,M,,*67
$GPGSV,2,1,08,01,40,083,41,02,17,023,43,03,30,110,42,04,22,234,39*76
$GPGSV,2,2,08,05,75,050,45,06,10,300,40,07,52,145,38,08,35,200,44*75
$GPRMC,130844.400,A,3116.61699,N,12111.62464,E,11.579373576,0.0,050226,,,A*5F
$GPGGA,130844.400,3116.61699,N,12111.62464,E,1,10,0.9,0.0,M,0.0,M,,*6E
$GPGSV,2,1,08,01,40,083,41,02,17,023,43,03,30,110,42,04,22,234,39*76
$GPGSV,2,2,08,05,75,050,45,06,10,300,40,07,52,145,38,08,35,200,44*75
$GPRMC,130844.440,A,3116.61684,N,12111.62460,E,11.7235420416,0.0,050226,,,A*6D
$GPGGA,130844.440,3116.61684,N,12111.62460,E,1,10,0.9,0.0,M,0.0,M,,*62
$GPGSV,2,1,08,01,40,083,41,02,17,023,43,03,30,110,42,04,22,234,39*76
$GPGSV,2,2,08,05,75,050,45,06,10,300,40,07,52,145,38,08,35,200,44*75
$GPRMC,130844.480,A,3116.61670,N,12111.62457,E,11.8110150432,0.0,050226,,,A*61
$GPGGA,130844.480,3116.61670,N,12111.62457,E,1,10,0.9,0.0,M,0.0,M,,*61
$GPGSV,2,1,08,01,40,083,41,02,17,023,43,03,30,110,42,04,22,234,39*76
$GPGSV,2,2,08,05,75,050,45,06,10,300,40,07,52,145,38,08,35,200,44*75
$GPRMC,130844.520,A,3116.61655,N,12111.62453,E,11.968142472,0.0,050226,,,A*51
$GPGGA,130844.520,3116.61655,N,12111.62453,E,1,10,0.9,0.0,M,0.0,M,,*69
$GPGSV,2,1,08,01,40,083,41,02,17,023,43,03,30,110,42,04,22,234,39*76
$GPGSV,2,2,08,05,75,050,45,06,10,300,40,07,52,145,38,08,35,200,44*75
$GPRMC,130844.560,A,3116.61641,N,12111.62450,E,12.044276380800001,0.0,050226,,,A*50
$GPGGA,130844.560,3116.61641,N,12111.62450,E,1,10,0.9,0.0,M,0.0,M,,*6B
$GPGSV,2,1,08,01,40,083,41,02,17,023,43,03,30,110,42,04,22,234,39*76
$GPGSV,2,2,08,05,75,050,45,06,10,300,40,07,52,145,38,08,35,200,44*75
$GPRMC,130844.600,A,3116.61626,N,12111.62445,E,12.1371489504,0.0,050226,,,A*61
$GPGGA,130844.600,3116.61626,N,12111.62445,E,1,10,0.9,0.0,M,0.0,M,,*6B
$GPGSV,2,1,08,01,40,083,41,02,17,023,43,03,30,110,42,04,22,234,39*76
$GPGSV,2,2,08,05,75,050,45,06,10,300,40,07,52,145,38,08,35,200,44*75
$GPRMC,130844.640,A,3116.61612,N,12111.62442,E,12.1879048896,0.0,050226,,,A*69
$GPGGA,130844.640,3116.61612,N,12111.62442,E,1,10,0.9,0.0,M,0.0,M,,*6F
$GPGSV,2,1,08,01,40,083,41,02,17,023,43,03,30,110,42,04,22,234,39*76
$GPGSV,2,2,08,05,75,050,45,06,10,300,40,07,52,145,38,08,35,200,44*75
$GPRMC,130844.640,A,3116.61612,N,12111.62442,E,12.1879048896,0.0,050226,,,A*69
$GPGGA,130844.640,3116.61612,N,12111.62442,E,1,10,0.9,0.0,M,0.0,M,,*6F
$GPGSV,2,1,08,01,40,083,41,02,17,023,43,03,30,110,42,04,22,234,39*76
$GPGSV,2,2,08,05,75,050,45,06,10,300,40,07,52,145,38,08,35,200,44*75
$GPRMC,130844.680,A,3116.61598,N,12111.62438,E,12.2656586688,0.0,050226,,,A*6F
$GPGGA,130844.680,3116.61598,N,12111.62438,E,1,10,0.9,0.0,M,0.0,M,,*6F
$GPGSV,2,1,08,01,40,083,41,02,17,023,43,03,30,110,42,04,22,234,39*76
$GPGSV,2,2,08,05,75,050,45,06,10,300,40,07,52,145,38,08,35,200,44*75
$GPRMC,130844.720,A,3116.61584,N,12111.62433,E,12.3531316704,0.0,050226,,,A*6B
$GPGGA,130844.720,3116.61584,N,12111.62433,E,1,10,0.9,0.0,M,0.0,M,,*62
$GPGSV,2,1,08,01,40,083,41,02,17,023,43,03,30,110,42,04,22,234,39*76
$GPGSV,2,2,08,05,75,050,45,06,10,300,40,07,52,145,38,08,35,200,44*75
$GPRMC,130844.760,A,3116.61569,N,12111.62430,E,12.454103592000001,0.0,050226,,,A*54
$GPGGA,130844.760,3116.61569,N,12111.62430,E,1,10,0.9,0.0,M,0.0,M,,*66
$GPGSV,2,1,08,01,40,083,41,02,17,023,43,03,30,110,42,04,22,234,39*76
$GPGSV,2,2,08,05,75,050,45,06,10,300,40,07,52,145,38,08,35,200,44*75
$GPRMC,130844.800,A,3116.61552,N,12111.62426,E,12.60799128,0.0,050226,,,A*60
$GPGGA,130844.800,3116.61552,N,12111.62426,E,1,10,0.9,0.0,M,0.0,M,,*60
$GPGSV,2,1,08,01,40,083,41,02,17,023,43,03,30,110,42,04,22,234,39*76
$GPGSV,2,2,08,05,75,050,45,06,10,300,40,07,52,145,38,08,35,200,44*75
$GPRMC,130844.800,A,3116.61552,N,12111.62426,E,12.60799128,0.0,050226,,,A*60
$GPGGA,130844.800,3116.61552,N,12111.62426,E,1,10,0.9,0.0,M,0.0,M,,*60
$GPGSV,2,1,08,01,40,083,41,02,17,023,43,03,30,110,42,04,22,234,39*76
$GPGSV,2,2,08,05,75,050,45,06,10,300,40,07,52,145,38,08,35,200,44*75
$GPRMC,130844.840,A,3116.61536,N,12111.62422,E,12.771058233600002,0.0,050226,,,A*52
$GPGGA,130844.840,3116.61536,N,12111.62422,E,1,10,0.9,0.0,M,0.0,M,,*62
$GPGSV,2,1,08,01,40,083,41,02,17,023,43,03,30,110,42,04,22,234,39*76
$GPGSV,2,2,08,05,75,050,45,06,10,300,40,07,52,145,38,08,35,200,44*75
$GPRMC,130844.880,A,3116.61520,N,12111.62418,E,12.8952482976,0.0,050226,,,A*6A
$GPGGA,130844.880,3116.61520,N,12111.62418,E,1,10,0.9,0.0,M,0.0,M,,*60
$GPGSV,2,1,08,01,40,083,41,02,17,023,43,03,30,110,42,04,22,234,39*76
$GPGSV,2,2,08,05,75,050,45,06,10,300,40,07,52,145,38,08,35,200,44*75
$GPRMC,130844.920,A,3116.61504,N,12111.62414,E,13.0043195712,0.0,050226,,,A*64
$GPGGA,130844.920,3116.61504,N,12111.62414,E,1,10,0.9,0.0,M,0.0,M,,*61
$GPGSV,2,1,08,01,40,083,41,02,17,023,43,03,30,110,42,04,22,234,39*76
$GPGSV,2,2,08,05,75,050,45,06,10,300,40,07,52,145,38,08,35,200,44*75
